LON,LAT,ESTADO,CVE_SIH,NOMBRE_ESTACION,OCT
-102.31,21.9,AGS,AGSAG,AGUASCALIENTES,25.7
-102.59,22.18,AGS,ALMAG,ALAMITOS (CAMPAMENTO),78.9
-102.47,22.19,AGS,ANVAG,CINCUENTA ANIVERSARIO,45
-102.67,22,AGS,CDRAG,LA CODORNIZ,36.7
-102.2,22.01,AGS,CHOAG,CAÒADA HONDA,38.5
-102.19,21.83,AGS,CLVAG,CALVILLITO,5.8
-102,21.9,AGS,CNSAG,LOS CONOS,27.6
-102.3,22.36,AGS,CSOAG,COSIO,69.5
-102.35,22.12,AGS,JCQAG,JOCOQUE,18.8
-102.8,21.79,AGS,MNLAG,MEDIA LUNA,40.8
-102.44,21.78,AGS,NGRAG,EL NIAGARA,48.3
-102,22.02,AGS,NVLAG,EL NOVILLO                         *,16.5
-102.29,21.85,AGS,OBSAG,OBSERVATORIO,49.7
-101.97,21.92,AGS,PALAG,PALO ALTO,22.5
-102.29,22.16,AGS,PBLAG,PABELLON,85.1
-102.42,22.14,AGS,PECAG,CALLES,53.6
-102.14,22.2,AGS,PTOAG,PUERTO DE LA CONCEPCION,45.5
-102.44,22.24,AGS,PTRAG,POTRERILLOS,33.1
-102.11,21.89,AGS,SNVAG,SANDOVALES,12
-102.13,21.81,AGS,TNJAG,LA TINAJA II,11.5
-102.07,22.1,AGS,VJZAG,VILLA JUAREZ,27.4
-116.2,32.27,BC,AGHBN,AGUA HECHICERA,24.1
-116.91,32.45,BC,ALRBN,ABELARDO L. RODRIGUEZ,17.9
-113.56,28.9,BC,BAABN,"BAHIA DE LOS ANGELES, BC.  SMN",40.9
-116.7,32.48,BC,CRRBN,EL CARRIZO,21.4
-113.46,27.64,BC,DIABN,"Gustavo DÌçaz Ordaz, B.C.S.  SMN*",48.9
-116.81,32.47,BC,EFLBN,EL FLORIDO,10.5
-116.17,31.1,BC,ELZBN,EMILIO LOPEZ ZAMORA,11.8
-115.19,32.41,BC,ENLBN,EJIDO NUEVO LEON,0
-116.3,32.52,BC,HNGBN,EL HONGO,21.8
-116.81,32.1,BC,LAMBN,LA MISION,5
-115.27,32.39,BC,MXCBN,MEXICALI,0.5
-114.73,32.7,BC,PDMBN,PRESA DERIVADORA MORELOS,0
-116.6,31.89,BC,PLZBN,"LÛpez Zamora, B.C.  SMN*",61.2
-114.85,31.03,BC,SFLBN,SAN FELIPE,0
-115.94,30.53,BC,SQNBN,"San Quintin, B.C. SMN*",191.3
-111.66,25,BCS,CCNBS,CD. CONSTITUCION,74.8
-109.91,22.88,BCS,CSLBS,CABO SAN LUCAS,33
-113.42,27.78,BCS,DORBS,DIAZ ORDAZ,0
-114.05,27.97,BCS,GNGBS,GUERRERO NEGRO,0
-109.7,23.68,BCS,LBABS,LOS BARRILES,68
-110.37,24.15,BCS,LPZBS,LA PAZ,40.7
-111.34,26.02,BCS,LRTBS,LORETO,205.4
-112,26.87,BCS,MLGBS,MULEGE,91
-109.98,24.07,BCS,PLNBS,LOS PLANES,5
-109.55,23.58,BCS,RBRBS,LA RIBERA,89.5
-110.05,23.8,BCS,SANBS,SAN ANTONIO,17.7
-109.6,23.03,BCS,SARBS,EL SARGENTO,7
-109.88,23.72,BCS,SBABS,SAN BARTOLO,41
-109.67,23.05,BCS,SJCBS,SAN JOSE DEL CABO,128
-109.72,23.45,BCS,SNTBS,SANTIAGO,63.2
-112.28,27.3,BCS,SRLBS,SANTA ROSALIA,20
-112.27,27.34,BCS,STRBS,"SANTA ROSALÕA, BCS. AUTOMATICA",0
-110.22,23.43,BCS,TSNBS,TODOS SANTOS,22
-89.74,20,CAMP,BOLCA,BOLONCHEN,181
-90.72,19.36,CAMP,CANCA,CANASAYAB,94
-90.55,19.85,CAMP,CAMCA,"Campeche, Camp.  SMN*",70.1
-91.76,18.65,CAMP,CARCA,EL CARMEN,291
-90.72,19.36,CAMP,CHMCA,CHAMPOTON,85.5
-90.54,19.84,CAMP,CMPCA,CAMPECHE,103
-91.05,18.18,CAMP,CNDCA,CANDELARIA,182
-90.54,19.84,CAMP,COBCA,CAMPECHE OBSERVATORIO,113.5
-90.74,18.61,CAMP,ESCCA,ESCARCEGA,102.1
-90.14,20.2,CAMP,HECCA,HECELCHAKAN,188.7
-89.84,19.76,CAMP,HPOCA,HOPELCHEN,120.4
-90.22,19.44,CAMP,NYXCA,NOH-YAXCHE,216.9
-92.09,18.13,CAMP,PLZCA,PALIZADA,207.5
-91.2,18.9,CAMP,SBNCA,SABANCUY,90
-89.87,19.71,CAMP,XCPCA,XCUPIL,110.4
-107.63,28.52,CHIH,AGZCH,PRESA ABRAHAM GONZALEZ,55
-107.25,28.8,CHIH,BACCH,BACHINIVA,52.5
-108.21,28.2,CHIH,BASCH,"Basaseachic, Chih.  SMN*",0.5
-108.21,28.21,CHIH,BSSCH,BASSASEACHIC,154.3
-107.72,27.03,CHIH,BTPCH,BATOPILAS,18.4
-107.9,27.9,CHIH,BTVCH,BATOVIRA,53
-107.9,30.5,CHIH,CAGCH,CASAS GRANDES,0
-105.17,27.69,CHIH,CCOCH,CD. CAMARGO,2
-105.46,28.2,CHIH,CDLCH,CD. DELICIAS,3
-108.54,27.39,CHIH,CHICH,"CHINIPAS, (AUTOMATICA)",42.4
-106.17,28.57,CHIH,CHUCH,PRESA CHIHUAHUA,10.7
-106.44,31.74,CHIH,CJZCH,CD. JUAREZ,2.5
-105.38,27.41,CHIH,CLNCH,COLINA,8.5
-108.54,27.42,CHIH,CNDCH,CHINIPAS,100.5
-107.64,27.76,CHIH,CRLCH,CREEL,34
-106.11,28.61,CHIH,ERECH,PRESA EL REJON,10.7
-105.63,28.17,CHIH,FIMCH,P. FRANCISCO I. MADERO,2
-108.3,29.2,CHIH,GPCCH,GUAPOCA,82.3
-107.28,26.68,CHIH,GRCCH,GUERACHIC,14.2
-106.96,26.1,CHIH,GYCCH,GUADALUPE Y CALVO,18.5
-107.88,26.87,CHIH,IGNCH,SAN IGNACIO,23.7
-104.92,27.12,CHIH,JMNCH,JIMENEZ,0
-105.39,27.54,CHIH,LBQCH,LA BOQUILLA,0
-106.98,29.94,CHIH,LJSCH,PRESA LAS LAJAS,22
-105.28,28.98,CHIH,LLNCH,PRESA LUIS L. LEON,2.5
-104.4,29.57,CHIH,OJNCH,OJINAGA,13.5
-105.55,26.55,CHIH,PAGCH,PICO DE AGUILA,0
-105.7,26.9,CHIH,PRRCH,PARRAL,1.3
-106.09,28.66,CHIH,QIJCH,OBSERVATORIO CHIHUAHUA,10.7
-107.85,28.95,CHIH,TMCCH,TEMOSACHIC,79.2
-107.4,29.56,CHIH,TNTCH,PRESA EL TINTERO,11.1
-107.84,27.3,CHIH,URECH,URIQUE ESTACION  II,20.3
-105.16,26.75,CHIH,VICCH,VILLA CORONADO,0
-105.81,27.45,CHIH,VZRCH,VALLE DE ZARAGOZA,1.5
-108.38,28.42,CHIH,YEPCH,YEPACHE,122
-92.8,16.55,CHIS,ACACP,ACALA,134.6
-92.76,16.45,CHIS,ANGCP,ANGOSTURA,207.5
-93.9,16.24,CHIS,AROCP,ARRIAGA METEOROLOGICO,180.5
-93.15,16.64,CHIS,BOQCP,BOQUERON,91.7
-92.72,15.35,CHIS,CACCP,CACALUTA,653.8
-92.48,16.31,CHIS,CASCP,CASCAJAL,202.9
-93.1,16.93,CHIS,CHICP,CHICOASEN,78.1
-92.28,15.75,CHIS,CHMCP,CHICOMUSELO,410.6
-92.1,16.2,CHIS,COOCP,COMITAN METEOROLOGICO,210.2
-92.58,15.2,CHIS,DESCP,DESPOBLADO,450
-92.95,15.5,CHIS,ELNCP,EL NOVILLERO,252
-92.67,15.32,CHIS,ESCCP,ESCUINTLA,559.3
-93.13,16.64,CHIS,GRICP,GRIJALVA,72.5
-92.47,15.13,CHIS,HUICP,HUIXTLA,647.6
-92.73,15.87,CHIS,JAPCP,JALTENANGO,251.7
-92.92,15.92,CHIS,JSBCP,JUAN SABINES (CUSTAPEQUES),157.9
-93.56,16.7,CHIS,LFLCP,LAS FLORES,164.9
-93.58,17.22,CHIS,MALCP,MALPASO (NETZAHUALCOYOTL),371.1
-92.88,15.45,CHIS,MAPCP,MAPASTEPEC,384.5
-93.16,17.22,CHIS,OCOCP,OCOTEPEC,304.3
-91.97,15.85,CHIS,PCOCP,PUENTE CONCORDIA,219.7
-93.45,17.41,CHIS,PE•CP,PRESA PE—ITAS,523.7
-93.22,15.69,CHIS,PIJCP,PIJIJIAPAN,295.8
-93.39,17.58,CHIS,PLACP,PLATANAR                            *,291.3
-93.55,17.35,CHIS,RCACP,ROMULO CALZADA,416.6
-92.67,15.92,CHIS,REFCP,REFORMA,316.4
-93.75,16.16,CHIS,REVCP,REVOLUCION MEXICANA,194.4
-92.35,17.57,CHIS,SAACP,SALTO DE AGUA,813
-93.38,17.43,CHIS,SAYCP,SAYULA,514.1
-92.63,16.73,CHIS,SCOCP,SAN CRISTOBAL METEOROLOGICO,225.2
-92.62,16.74,CHIS,SCRCP,SAN CRISTOBAL,213.7
-92.11,15.78,CHIS,SDOCP,SANTO DOMINGO,50.8
-92.24,15.78,CHIS,SMICP,SAN MIGUEL,440.8
-92.82,16.94,CHIS,SNACP,SANTA MARIA,292.5
-92.72,14.95,CHIS,TAMCP,TAPACHULA (MALPASO II),748.3
-92.25,14.92,CHIS,TAPCP,TAPACHULA OBSERVATORIO,427.7
-93.75,16.09,CHIS,TONCP,TONALA,268.9
-93.53,15.88,CHIS,TPICP,TRES PICOS,202.5
-93.02,17.75,CHIS,TUXCP,TUXTLA GUTIERREZ PALMAS,86.9
-93.13,16.75,CHIS,TXOCP,TUXTLA GTZ. OBSERVATORIO,97
-93.27,16.23,CHIS,VIFCP,VILLA FLORES,65.5
-93.33,17.12,CHIS,YAMCP,YAMANHO,265
-100.84,28.34,COAH,ADLCL,ALLENDE,163
-101.06,29.44,COAH,AMSCL,PRESA AMISTAD,56
-100.45,25.52,COAH,ARACL,RAMOS ARIZPE,6
-100.93,25.55,COAH,ARACL,RAMOS ARIZPE AEROPUERTO,6
-102.1,27,COAH,CCGCL,CUATRO CIENEGAS                     *,39.8
-100.95,29.33,COAH,CDACL,CIUDAD ACUÒA,43
-100.65,26.84,COAH,CDLCL,CANDELA,29
-100.94,29.21,COAH,CNTCL,PRESA EL CENTENARIO,107
-103.47,25.54,COAH,CYTCL,COYOTE,35.3
-100.9,25.43,COAH,ESLCL,E. C. SALTILLO,14.1
-100.82,28.82,COAH,LFGCL,LA FRAGUA,0.2
-103.28,25.07,COAH,LFLDR,LA FLOR,30.4
-103.2,25.6,COAH,MATCL,MATAMOROS SL,62
-101.42,26.91,COAH,MCVCL,MONCLOVA,43.1
-101.51,27.88,COAH,MZQCL,MUZQUIZ,72
-102.4,27.32,COAH,OCMCL,OCAMPO,30.5
-102.18,25.44,COAH,PARCL,PARRAS,41.2
-100.52,28.67,COAH,PNGCL,PIEDRAS NEGRAS,94.7
-101,25.46,COAH,PRSCL,PROGRESO,67.5
-100.57,25.27,COAH,SAACL,SAN ANTONIO DE LAS ALAZANAS,23
-101.01,25.42,COAH,SALCL,SALTILLO (BELLAVISTA),16.5
-101.12,27.84,COAH,SBNCL,SABINAS,56.5
-100.95,29.04,COAH,SMGCL,PRESA SAN MIGUEL,94
-103.7,27.29,COAH,SMJCL,SIERRA MOJADA,7.5
-102.98,25.76,COAH,SPECL,SAN PEDRO,35.1
-101.02,25.38,COAH,STOCL,SALTILLO,13
-103.45,25.54,COAH,TORCL,TORREON OBSERVATORIO,27.3
-100.73,27.5,COAH,VCRCL,PRESA VENUSTIANO CARRANZA,11.5
-101.9,29,COAH,ZPTCL,ZAPATA,94
-103.61,19.25,COL,BVSCM,BUENA VISTA,101
-103.72,18.75,COL,CDOCM,CERRO DE ORTEGA,52.1
-103.71,19.3,COL,CHNCM,EL CHANAL,90.5
-103.63,18.81,COL,CLLCM,CALLEJONES,70.3
-103.76,19.32,COL,CMLCM,COMALA,69.7
-103.8,19.21,COL,CQMCM,COQUIMATLAN,42
-103.6,19.33,COL,CUACM,CUAHTEMOC,80
-103.88,19.11,COL,DJLCM,DERIVADORA JALA,70.5
-103.87,19.17,COL,LAECM,LA ESPERANZA,3
-103.87,18.9,COL,LDACM,LAGUNA DE AMELA,43.7
-103.73,19.22,COL,LPSCM,LA POSTA,31.5
-104.32,19.04,COL,MNZCM,MANZANILLO,112.1
-103.82,19.27,COL,PNTCM,PEÒITAS,120.5
-103.73,19.22,COL,RDRCM,RADAR,19.5
-103.7,19.41,COL,SCHCM,SUCHITLAN,128.2
-103.88,18.93,COL,TCMCM,TECOMAN,73.5
-103.52,19.25,COL,TRJCM,TROJES,36
-103.66,19.28,COL,TRPCM,TRAPICHE,70.6
-99.21,19.22,DF,AJSDF,AJUSCO,101.4
-99.17,19.45,DF,CBIDF,"ESCUELA NACIONAL DE CIENCIAS BIOLOGICAS, IPN (AUTOMATICA)",97.7
-99.18,19.35,DF,CCUDF,CENTRO UNIVERSITARIO,128.6
-99,19.36,DF,CDMDF,CARCEL DE MUJERES,45
-99.11,19.41,DF,CDVDF,CIUDAD DEPORTIVA,56.8
-99.18,19.5,DF,CEADF,CAMPAMENTO AMEALCO,77.9
-99.21,19.16,DF,CFSDF,CASETA FORESTAL,0
-99.14,19.47,DF,CMTDF,CIEN METROS,19.5
-99.18,19.49,DF,CMYDF,CAMPO MECOAYA,93.8
-99.09,19.19,DF,CTNDF,CUAUTENCO,89.3
-99.09,19.48,DF,CYLDF,COYOL,38.2
-99.21,19.3,DF,DATDF,DESVIACION ALTA                     *,70.5
-99.13,19.43,DF,DDFDF,GOBIERNO DEL D. F.,82.5
-99.31,19.31,DF,DTLDF,DESIERTO DE LOS LEONES,116.7
-99.15,19.38,DF,DVLDF,DEL VALLE,82.3
-99.16,19.3,DF,EAZDF,ESTADIO AZTECA,89.4
-99.29,19.36,DF,EYQDF,EL YAQUI,5.9
-99.35,19.3,DF,EZCDF,EL ZARCO,97.1
-99.07,19.49,DF,GCNDF,KM. 6+250 (GRAN CANAL),66.2
-99.26,19.31,DF,HYTDF,HUAYATLA,80
-99.3,19.34,DF,LVNDF,LA VENTA,132.9
-99.28,19.22,DF,MAGDF,MONTE ALEGRE,111.9
-99.13,19.4,DF,MCRDF,M. CARRILLO,95.6
-99.03,19.19,DF,MLPDF,MILPA ALTA,44.3
-99.23,19.19,DF,MZTDF,P ABASOLO(MEZONTEPEC),115.6
-99.1,19.32,DF,OCSDF,OFICINA CAVM SUR,78.2
-99.1,19.38,DF,PBADF,P. B. ACULCO,54.2
-99.06,19.43,DF,PBCDF,P. B. CHURUBUSCO L(CH.LAGO),35.1
-99.12,19.49,DF,PBLDF,P. B. LINDAVISTA,47.7
-99.04,19.38,DF,PBODF,P. B. U. E. DE ORIENTE,81.7
-99.17,19.44,DF,PBTDF,P. B. TIZOC,106.4
-99.2,19.41,DF,PCHDF,PTA. CHAPULTEPEC,73.8
-99.1,19.46,DF,PGNDF,PLANTA GENERADORA 101,61.5
-99.08,19.34,DF,PLEDF,P. T. LA ESTRELLA,69.1
-99.07,19.42,DF,PLMDF,P. B. LOPEZ MATEOS,62
-99.13,19.37,DF,PMLDF,P. B. MUNICIPIO LIBRE,74.3
-99.09,19.25,DF,PNTDF,PLANTA NATIVITAS,80.5
-99.26,19.29,DF,PRMDF,P. T. RIO MAGDALENA,146.7
-99.15,19.51,DF,PRRDF,P. T. RIO REMEDIOS,51
-99.02,19.3,DF,PSCDF,P. T. SANTA CATARINA,59.8
-99.05,19.23,DF,PSLDF,PLANTA SAN LUIS,63.9
-99.16,19.47,DF,PSNDF,P. B. NUEVA SANTA MARIA,116.1
-99.17,19.26,DF,PSPDF,"P. SAN PEDRO MARTIR, DF",14.5
-99.19,19.51,DF,PTRDF,P. T. ROSARIO,111.6
-99.13,19.29,DF,PVCDF,P. B. VILLA COAPA,97.6
-99.14,19.33,DF,PXTDF,PLANTA XOTEPINGO,90.5
-99.19,19.3,DF,RBTDF,REBOMBEO BOSQUE TLALPAN(B TLALPAN),107.1
-99.17,19.4,DF,RCMDF,RADIO COMUNICACION,95.4
-99,19.17,DF,SANDF,SANTA ANA,32.6
-99.28,19.33,DF,SBADF,SAN BARTOLO AMEYALCO,110.8
-99.03,19.34,DF,SCMDF,SANTA CRUZ MEYEHUALCO,51.3
-99.12,19.58,DF,SGDDF,SIERRA GUADALUPE,17.1
-99.07,19.47,DF,SJADF,SAN JUAN DE ARAGON,60
-99.01,19.28,DF,SPPDF,SAN PEDRO TLAHUAC,53.4
-98.96,19.32,DF,SSCDF,S. ELEC. SANTA CATARINA(LA CALERA),49.9
-99.14,19.56,DF,TCMDF,TANQUE CHALMITA,84.5
-99.27,19.37,DF,TECDF,TANQUE EL CARTERO,73.2
-99.25,19.33,DF,TELDF,TANQUE EL LIENZO,56.8
-99.21,19.4,DF,TNGDF,TRIANGULO,94.7
-99.14,19.2,DF,TPJDF,TOPILEJO,122.8
-99.08,19.44,DF,TPNDF,TANQUE PEÒON,51
-99.21,19.36,DF,TRGDF,TARANGO,66.9
-99.25,19.32,DF,TSFDF,T. SAN FRANCISCO,99.9
-99.23,19.44,DF,TSJDF,T. SAN JOAQUIN,79.2
-99.26,19.36,DF,TSLDF,TRIF. SANTA LUCIA (SANTA FE),49.6
-98.97,19.21,DF,TTLDF,TETELCO,58.1
-99.21,19.51,DF,VDCDF,VASO DE CRISTO (SACM),86.3
-104.07,25.26,DGO,AM2DR,"AGUSTIN MELGAR, (AUTOMATICA)",0.8
-104.48,26.24,DGO,APRDR,AGUA PUERCA,25.3
-104.7,24,DGO,CAGDR,CAMPO AGRICOLA,7.1
-104.8,24.52,DGO,CB2DR,CABORACA (HIDRO),36
-104.8,24.52,DGO,CBRDR,P. CABORACA,36.2
-104.07,26.3,DGO,CEBDR,CEVALLOS,5.7
-104.12,24.44,DGO,CGVDR,CIUDAD GUADALUPE VICTORIA,40.4
-103.52,25.53,DGO,CLRDR,CIUDAD LERDO,33.1
-103.7,24.87,DGO,CNCDR,CUENCAME,16.6
-104.75,24.5,DGO,CNTDR,CANATLAN,35.8
-104.67,24.03,DGO,DRGDR,DURANGO,22.3
-103.96,24,DGO,FV2DR,FRANCISCO VILLA (HIDRO),14.5
-103.96,24,DGO,FVLDR,PRESA FRANCISCO VILLA,14.8
-103.78,25.27,DGO,FZRDR,PRESA FRANCISCO ZARCO,12
-105.25,25.5,DGO,GESDR,GENERAL ESCOBEDO,12
-105.96,25.93,DGO,GNCDR,GUANACEVI,0
-104.75,23.96,DGO,GVCDR,PRESA GUADALUPE VICTORIA,67.8
-104.75,23.96,DGO,GVHDR,GUADALUPE VICTORIA,67.7
-105,25.61,DGO,LCRDR,PRESA LAZARO CARDENAS,18.9
-103.28,25.06,DGO,LFLDR,LA FLOR,30.4
-103.31,24.63,DGO,LNRDR,PRESA LOS NARANJOS,14
-105.47,24.19,DGO,LVEDR,"LAS VEGAS, (AUTOMATICA)",44.7
-103.85,25.82,DGO,MPMDR,MAPIMI,11
-104.11,25.23,DGO,NZSDR,NAZAS,18
-104.66,24.24,DGO,PA2DR,PE—A DEL AGUILA (HIDRO),21.6
-104.66,24.24,DGO,PAGDR,PRESA PEÒA DEL AGUILA,21.9
-106.37,26.13,DGO,ROSDR,LA ROSILLA,6
-104.9,25.75,DGO,RPADR,RADAR PALMITO,1
-105.44,25.23,DGO,SACDR,SALOME ACOSTA,16.3
-104.67,23.87,DGO,SB2DR,SANTIAGO BAYACORA (HIDRO),27.3
-104.67,23.87,DGO,SBYDR,P. SANTIAGO BAYACORA,27.3
-104.05,23.62,DGO,SELDR,PRESA SANTA ELENA,46.2
-105.55,26.42,DGO,SGBDR,SAN GABRIEL,0
-106.13,24.44,DGO,SJRDR,SAN JOSE DE REYES,28
-105.37,25.95,DGO,SMODR,SANTA MARIA DEL ORO,10.1
-105.42,25.04,DGO,SPPDR,SANTIAGO PAPASQUIARO,23.5
-105.57,26.08,DGO,SRDDR,SARDINAS,0
-103.44,26.11,DGO,THODR,TLAHUALILO,58
-105.73,25.34,DGO,TLHDR,TEPEHUANES,1
-106.98,24.93,DGO,TMZDR,TAMAZULA,0.1
-104.5,26.1,DGO,VHGDR,P. VILLA HIDALGO,23.6
-105.5,26.44,DGO,VOCDR,VILLA OCAMPO,8
-99.91,16.85,GRO,ACAGR,ACAPULCO,249.9
-99.75,16.76,GRO,ACUGR,"ACAPULCO, (AUTOMATICA)",414.3
-99.5,17.5,GRO,AERGR,AEROPUERTO,49.1
-98.98,17.72,GRO,AHUGR,AHUACUOTZINGO,47.5
-99.1,16.95,GRO,AYUGR,AYUTLA,253
-99.2,18.2,GRO,BVSGR,BUENA VISTA,114
-100.66,18.35,GRO,CA2GR,"CD. ALTAMIRANO, (AUTOMATICA)",0
-100.66,18.36,GRO,CALGR,CIUDAD ALTAMIRANO,94.9
-100.63,18.33,GRO,CDBGR,COYUCA DE BENITEZ,0
-99.5,17.55,GRO,CHIGR,CHILPANCINGO,108.8
-99.18,17.61,GRO,CHLGR,CHILAPA,89.5
-98.41,16.47,GRO,CNLGR,CUAJINICUILAPA,92.5
-99.66,18.25,GRO,COCGR,COCULA,45.9
-98.97,16.61,GRO,COPGR,COPALA,90
-101.05,17.38,GRO,CYQGR,COYUQUILLA,138.5
-99.72,17.32,GRO,ECAGR,EL CARACOL,70.7
-100.68,18.52,GRO,EGLGR,P. EL GALLO,81.8
-99.55,18.35,GRO,IGLGR,IGUALA,20.2
-101,18.45,GRO,LCLGR,LA CALERA,10
-100.02,16.96,GRO,LDCGR,LAGUNA DE COYUCA,112.6
-99.24,16.76,GRO,LDGGR,LAS VIGAS,100.2
-99.48,18.35,GRO,LDTGR,LAGUNA DE TUXPAN,19.6
-99.37,17.47,GRO,MCHGR,MOCHITLAN,89.4
-99.8,16.8,GRO,ODAGR,OBSERVATORIO DE ACAPULCO,364.7
-99.5,17.6,GRO,ODZGR,OBSERVATORIO DE ZUMPANGO,88
-98.74,17.78,GRO,OLNGR,OLINALA,61.5
-98.43,16.68,GRO,OMEGR,OMETEPEC,146.8
-99.2,16.8,GRO,RMEGR,REVOLUCION MEXICANA,28.9
-100.47,17.14,GRO,SJEGR,SAN JERONIMO,305.6
-99.48,16.8,GRO,SNMGR,SAN MARCOS                          *,170.6
-99.61,18.55,GRO,TAXGR,TAXCO,0
-100.63,17.26,GRO,TECGR,TECPAN DE GALEANA,0
-99.98,17.79,GRO,TLAGR,TLACOTEPEC,348.7
-98.6,17.5,GRO,TLPGR,TLAPA,31.5
-99.4,17.57,GRO,TXTGR,TIXTLA,54.1
-100.27,18.39,GRO,VGRGR,P. VICENTE GUERRERO,183.4
-99.5,18.42,GRO,VTRGR,PRESA VALERIO TRUJANO,22.9
-98.49,17.9,GRO,XXHGR,XOCHIHUEHUETLAN,65.9
-101.55,17.65,GRO,ZHTGR,ZIHUATANEJO,179.4
-101.52,20.43,GTO,ABSGJ,ABASOLO,33.5
-100.72,20.03,GTO,ACNGJ,ACAMBARO,61.1
-100.68,20.53,GTO,AEGGJ,APASEO EL GRANDE,10.7
-100.58,20.55,GTO,AMCGJ,AMECHE,33.8
-101.37,20.71,GTO,ANSGJ,ARANDAS,50
-100.62,20.45,GTO,APSGJ,APASEO EL ALTO,25.1
-101.63,20.5,GTO,ATBGJ,AGUA TIBIA,38
-100.83,20.85,GTO,BEGGJ,LA BEGO—A (HIDROM. IGNACIO ALLENDE),18.2
-101.83,21.05,GTO,BRRGJ,PRESA EL BARRIAL,69.2
-100.9,20.28,GTO,CBOGJ,"EL CUBO, (AUTOMATICA)",95.8
-100.82,20.53,GTO,CLYGJ,CELAYA,10.2
-101.47,21.07,GTO,COMGJ,COMANJILLA,44
-100.36,20.2,GTO,CORGJ,CORONEO,74.6
-101.67,20.62,GTO,CRMGJ,CUERAMARO,35.5
-100.95,20.48,GTO,CRTGJ,CORTAZAR,10.5
-100.9,20.95,GTO,CSRGJ,CINCO SEÒORES,40.5
-101.67,21.19,GTO,CSSGJ,LOS CASTILLOS(CANALES),81.6
-101.67,21.2,GTO,CSTGJ,LOS CASTILLOS,81.6
-100.93,21.15,GTO,DHGGJ,DOLORES HIDALGO,16
-100.5,20.2,GTO,ECBGJ,EL CUBO,92
-101.2,20.9,GTO,ECHGJ,EL CHAPIN,53
-101.37,20.73,GTO,ECNGJ,PRESA EL CONEJO,50
-101.67,21.17,GTO,EPLGJ,EL PALOTE,66.9
-101.75,20.43,GTO,GLNGJ,PRESA LA GOLONDRINA,60.5
-101.27,21.01,GTO,GTOGJ,GUANAJUATO,78.9
-100.82,20.83,GTO,IALGJ,IGNACIO ALLENDE,20.4
-101.35,20.68,GTO,IRPGJ,IRAPUATO,34.5
-100.52,20.13,GTO,JCRGJ,JERECUARO,79.8
-101,20.4,GTO,JDPGJ,JARAL DEL PROGRESO,37.8
-101.83,20.67,GTO,LADGJ,LAS ADJUNTAS,72.8
-101.13,20.22,GTO,LDYGJ,SANTA MARIA YURIRIA,19.5
-101.67,21.1,GTO,LENGJ,LEON,60.8
-100.87,20.38,GTO,LGVGJ,P. LA GAVIA,14.5
-101.36,20.28,GTO,LJIGJ,LAS JICAMAS,87
-101,20.3,GTO,LMTGJ,LOMO DE TORO,32.9
-101.11,21.32,GTO,LQMGJ,LA QUEMADA,45.2
-101.95,20.5,GTO,MABGJ,MARIANO ABASOLO,103
-100.58,20.56,GTO,MCHGJ,"AMECHE, (AUTOMATICA)",31.2
-101.19,20.13,GTO,MORGJ,MOROLEON,63
-101.52,21.63,GTO,OCMGJ,OCAMPO,21
-100.83,20.85,GTO,PALGJ,"PRESA ALLENDE, GTO.  SMN",1.8
-101.06,20.52,GTO,PCSGJ,"PERICOS, (AUTOMATICA)",25.2
-100.9,21.1,GTO,PDLGJ,PUENTE DOLORES                      *,17
-101.13,20.52,GTO,PERGJ,PERICOS,26.5
-100.88,21.1,GTO,PNLGJ,PEÒUELITAS,42.1
-100.5,21.22,GTO,POZGJ,POZOS,10.4
-101.28,20.85,GTO,PRSGJ,PRESA LA PURISIMA,52.2
-101.22,21.48,GTO,SFEGJ,SAN FELIPE,46
-101.02,20.4,GTO,SJLGJ,SANTA JULIA,28.1
-100.39,21,GTO,SJPGJ,SAN J. PAN DE ARRIBA,78.3
-101.2,20.57,GTO,SLMGJ,SALAMANCA,93.1
-100.75,20.58,GTO,SMOGJ,SAN MIGUEL OCTOPAN,1.8
-100.52,21.3,GTO,SLPGJ,SAN LUIS DE LA PAZ,75.5
-100.82,20.05,GTO,SLSGJ,P. SOLIS,59.1
-100.88,20.22,GTO,SLVGJ,SALVATIERRA,63.7
-101.07,20.3,GTO,SRTGJ,SANTA RITA,33.8
-100.75,20.28,GTO,TARGJ,TARIMORO,54.5
-101.3,20.6,GTO,TEMGJ,TEMASCATIO,67.3
-100.8,20.5,GTO,TGRGJ,TRES GUERRAS,37
-101.37,20.74,GTO,TPCGJ,TEPALCATES,40.9
-101.18,20.39,GTO,VDSGJ,V. DE SANTIAGO,57.5
-100.09,21.3,GTO,XICGJ,XICHU,59.9
-101.02,20.27,GTO,YRDGJ,"YURIRIA CANAL ALIMENTADOR, AUTOM.",86
-98.94,20.27,HGO,ACTHD,ACTOPAN,31.5
-98.33,21.02,HGO,ATCHD,ATLAPESCO,285
-99.36,20.16,HGO,ENDHD,PRESA ENDO,75.5
-99.63,20.36,HGO,HCPHD,HUICHAPAN,58.7
-98.42,21.15,HGO,HJTHD,HUEJUTLA,267
-99.22,20.48,HGO,IXMHD,IXMIQUILPAN,20.8
-99.18,21.08,HGO,LMTHD,MEZTITLAN,44.9
-99.22,20.24,HGO,MXQHD,MIXQUIAHUALA,66
-98.6,21.17,HGO,ORZHD,SAN FELIPE ORIZATLAN,205
-98.74,20.12,HGO,PCHHD,PACHUCA,34.7
-98.75,20.13,HGO,PCOHD,"Pachuca Observatorio, Hgo.",38.3
-98.34,20.06,HGO,PERHD,PRESA LA ESPERANZA,46.3
-99.33,20.73,HGO,PRGHD,P.ROJO GOMEZ (LA PE—A),46
-99.31,19.97,HGO,PRQHD,PRESA REQUENA,35
-99.38,20.44,HGO,PVAHD,PRESA VICENTE AGUIRRE,45
-98.37,20.08,HGO,TLGHD,TULANCINGO,36.2
-99.39,19.84,HGO,TXMHD,TAXHIMAY,45
-99.5,20.66,HGO,ZMPHD,PRESA ZIMAPAN,18.6
-98.65,20.65,HGO,ZXTHD,ZACUALTIPAN,158.5
-102.44,21.6,JAL,AJJJL,AJOJUCAR,32.3
-103.09,20.4,JAL,ATQJL,ATEQUIZA,39.4
-104.06,19.91,JAL,BBAJL,BASILIO BADILLO,7
-103.72,22.4,JAL,BCSJL,BOCAS,42.9
-103.78,21.83,JAL,BLNJL,BOLAÒOS,28.6
-103.2,20.29,JAL,CHAJL,"Chapala 1, Jal.  SMN*",14
-104.57,19.23,JAL,CIHJL,CIHUATLAN,53.3
-105.07,20.03,JAL,CPEJL,CAJON DE PEÒA,84.1
-103.72,20.13,JAL,CRRJL,CORRINCHIS,64.2
-101.7,21.5,JAL,CRTJL,PRESA EL CUARENTA,48.2
-105.05,20.58,JAL,CULJL,CUALE,126.8
-103.45,21.07,JAL,CXTJL,CUIXTLA,44.4
-103.33,20.73,JAL,EXPJL,LA EXPERIENCIA,108.4
-103.37,20.67,JAL,GUAJL,GUADALAJARA CENTRO,86.9
-103.4,20.7,JAL,GUCJL,GUADALAJARA COLOMUS,23.1
-102.71,20.29,JAL,JMYJL,JAMAY,28.9
-103.2,20.3,JAL,LDCJL,LAGO DE CHAPALA,28.4
-101.92,21.36,JAL,LDMJL,LAGOS DE MORENO,20.3
-102.2,20.5,JAL,POLJL,LUGO ZANABRIA-LA POLVORA,43.8
-101.85,21.35,JAL,SA1JL,PRESA LA SAUCEDA,78.3
-102.5,21.3,JAL,SGRJL,SAN GASPAR DE LOS REYES,16.6
-103.71,20.91,JAL,SRSJL,PRESA SANTA ROSA,16.8
-102.58,21.45,JAL,TCAJL,TEOCALTICHE,24.8
-104.32,20.04,JAL,TCTJL,TACOTAN,20
-103.2,22.17,JAL,TENJL,TENASCO,21.3
-103.32,20.58,JAL,TLAJL,TLAQUEPAQUE,65.4
-104.12,19.85,JAL,TMLJL,P. TRIGOMIL,44.7
-103.8,20.6,JAL,VEGJL,LA VEGA,60.7
-99.35,19.38,MEX,2RSMX,DOS RIOS,129
-99.22,19.57,MEX,ARBMX,LAS ARBOLEDAS,52.1
-98.91,19.51,MEX,ATEMX,ATENCO,39.1
-99.87,19.78,MEX,ATPMX,"Atlacomulco Prepa., MÈx.",54.4
-99.7,19.33,MEX,CALMX,CALIXTLAHUACA,67.2
-99.33,19.4,MEX,CDBMX,CAIDA DEL BORRACHO,115.1
-99.51,19.21,MEX,CGCMX,GERENCIA C.N.A. CODAGEM,42.8
-100.12,19.2,MEX,CHIMX,P. CHILESDO,80.3
-98.88,19.48,MEX,CHPMX,CHAPINGO,51.3
-98.89,19.26,MEX,CLAMX,CHALCO AUTOMATICA (DF),0
-99.24,19.53,MEX,CLYMX,CALACOAYA,97.1
-99.91,20.15,MEX,CNPMX,PRESA LA CONCEPCION,58.6
-99.63,19.29,MEX,COBMX,C.N.A. OBSERVATORIO,66.1
-100.18,19.1,MEX,COLMX,COLORINES,77.8
-98.89,19.48,MEX,CPAMX,CHAPINGO AUTOMATICA (DF),0
-98.85,19.39,MEX,CTPMX,COATEPEC DE LOS OLIVOS,0
-99.6,19.9,MEX,DNXMX,P. DANXHO,67
-99.23,19.45,MEX,EMOMX,MOLINITO,70
-98.92,19.58,MEX,GRDMX,LA GRANDE AUTOMATICA,62
-98.92,19.58,MEX,GRDMX,"LA GRANDE, MEX",62
-99.7,20.07,MEX,HPNMX,P. HUAPANGO,94
-99.05,19.63,MEX,K27MX,KM. 27+250,37.5
-100.08,19.38,MEX,LBEMX,LOS BERROS,87.1
-99.25,19.63,MEX,LGLMX,LAGO GUADALUPE,0
-99.22,19.48,MEX,MBLMX,MOLINO BLANCO,95
-99.71,19.64,MEX,MLLMX,"SANTA MARIA DEL LLANO, AUTOMATICA",33.4
-99.19,19.62,MEX,OBSMX,SAN MARTIN OBISPO,89.7
-99.18,19.58,MEX,PBTMX,PRESA BARRIENTOS,79.9
-99.03,19.65,MEX,PCCMX,CHICONAUTLA II,68.3
-99.03,19.73,MEX,PCGMX,P. COLGANTE AUTOMATICA (DF),52.5
-99.18,19.74,MEX,PCGMX,PUENTE COLGANTE,52.5
-99.01,19.64,MEX,PCTMX,CHICONAUTLA I,72.8
-99.79,19.82,MEX,PFBMX,PRESA FRANCISCO T. FABELA,70
-99.77,19.46,MEX,PIRMX,P.IGNACIO RAMIREZ (ATOTONILCO),66.4
-99.25,19.43,MEX,PLMMX,PALMAS,111.3
-99.27,19.52,MEX,PM2MX,PRESA MADIN AUTOMATICA (DF),0
-99.26,19.53,MEX,PMDMX,PRESA MADIN,99.9
-99.7,20.1,MEX,PMNMX,P. EL MOLINO,82.5
-99.7,20,MEX,PNDMX,P. —ADO,95.1
-99.27,19.52,MEX,PREMX,PRESA MADIN,22.6
-99.21,19.41,MEX,PTLMX,PRESA TOTOLICA,67.2
-98.91,19.53,MEX,SADMX,SAN ANDRES (TEXCOCO),58.6
-99.7,19.47,MEX,SBBMX,SAN BERNABE (J. ANTONIO ALZATE),75
-99.71,19.21,MEX,SJHMX,S.J. HUERTAS,69.3
-98.87,19.19,MEX,SLAMX,SAN LUIS AMECA                      *,89.3
-98.87,19.19,MEX,SLAMX,SAN LUIS AMECA  AUTOMATICA,89.3
-99.7,19.6,MEX,SLBMX,SAN BARTOLO DEL LLANO,31.5
-99.8,19.33,MEX,TBRMX,TRES BARRANCAS,61.3
-99.94,18.93,MEX,TESMX,TEXCALTITLAN,69.6
-98.9,19.44,MEX,TJCMX,EL TEJOCOTE,73.1
-99.96,19.66,MEX,TPTMX,TEPETITLAN,150
-100.28,19.1,MEX,TROMX,TROJES,30.7
-99.28,19.45,MEX,TTLMX,TOTOLICA (HIDROMETRICA),59.4
-99.13,19.91,MEX,TTQMX,TAJO DE TEQUIXQUIAC,47.3
-100.1,19.1,MEX,VBRMX,P. VALLE DE BRAVO,75
-99.21,19.51,MEX,VDCMX,VASO DE CRISTO,72.9
-99.33,19.38,MEX,VNDMX,EL VENADO,0.8
-100.05,19.46,MEX,VVCMX,P. VILLA VICTORIA,77.8
-102.2,17.97,MICH,ADUMC,ADJUNTAS,29.6
-100.94,19.55,MICH,AGOMC,AGOSTITLAN,114
-102.27,19.08,MICH,APTMC,APATZINGAN                          *,55
-101.67,19.93,MICH,ARMMC,"ARISTEO MERCADO, AUTOMATICA",65.6
-102.42,20.18,MICH,BIBMC,BARRAJE DE IBARRA,41.3
-101.46,20.32,MICH,CBLMC,CASA BLANCA,97.4
-102.27,19.97,MICH,CHAMC,CHAPARACO,15.2
-100.55,19.7,MICH,CHIMC,CIUDAD HIDALGO,90
-102.75,19.18,MICH,CHLMC,P. CHILATAN,151
-100.9,18.5,MICH,CMNMC,CAIMANERA,66.2
-101.28,19.63,MICH,COIMC,COINTZIO,49.5
-101.86,20.21,MICH,CORMC,CORRALES,30.7
-102.59,20.25,MICH,CUUMC,CUMUATO,41.3
-100.42,19.39,MICH,DBOMC,EL BOSQUE,57.6
-102.4,20.3,MICH,DGNMC,DE GONZALO,0
-100.45,19.97,MICH,EGIMC,EL GIGANTE,73
-102.7,19.9,MICH,GUAMC,GUARACHA,32.2
-101.87,18.77,MICH,INFMC,PRESA INFIERNILLO,10.9
-102.6,19.9,MICH,JARMC,JARIPO,90.6
-100.41,19.84,MICH,LDFMC,LAGUNA DEL FRESNO,74.8
-102.87,19.21,MICH,LOLMC,LOS OLIVOS,90.5
-102.75,20.15,MICH,LPAMC,LA PALMA,57
-102,20.35,MICH,LPDMC,"La Piedad, Mich.",54.8
-102.9,18.8,MICH,LPNMC,LOS PANCHES,115
-102.2,18.8,MICH,LPSMC,LA PASTORIA,89.4
-101.2,18.8,MICH,LPZMC,LOS PINZANES,4.4
-101.1,19.7,MICH,MCEMC,MORELIA CENTRO,40.5
-100.9,19.9,MICH,MLPMC,MALPAIS,48
-101.2,19.7,MICH,MNOMC,MORELIA NORTE,59.9
-102.2,17.9,MICH,MOCMC,MELCHOR OCAMPO,62
-102.2,17.93,MICH,MOCMC,MELCHOR OCAMPO L. C.,62
-101.18,19.69,MICH,MORMC,MORELIA,47
-101.1,19.7,MICH,MORMC,MORELIA CENTRO,47
-100.44,19.89,MICH,MRVMC,MARAVATIO,65.5
-102.33,19.96,MICH,ORAMC,ORANDINO,15
-101.05,19.49,MICH,PDBMC,PLANTA DE BOMBEO,45.7
-100.69,19.62,MICH,PUCMC,PUCUATO,117
-100.67,19.62,MICH,SABMC,SABANETA,109.5
-102.72,20.07,MICH,SAHMC,SAHUAYO,58.5
-102.46,20.21,MICH,SCRMC,SAN CRISTOBAL,52.5
-102.64,19.83,MICH,SJUMC,SN. JUANICO,48
-102.4,20.1,MICH,SSIMC,SAN SIMON,68.4
-100.23,19.98,MICH,TEPMC,PRESA TEPUXTEPEC,46
-100.2,19.48,MICH,TMUMC,TERCER MUNDO,82.2
-102.13,19.97,MICH,UREMC,UREPETIRO,70.4
-102.3,18.12,MICH,VILMC,PRESA LA VILLITA,167.2
-101.45,19.55,MICH,VJIMC,VILLA JIMENEZ,108.6
-102.24,20.34,MICH,YURMC,YURECUARO,59.3
-102.28,20.01,MICH,ZAMMC,ZAMORA,31.5
-101.8,19.81,MICH,ZCAMC,ZACAPU,74.9
-101.93,18.92,MICH,ZICMC,ZICUIRAN,43
-100.83,19.86,MICH,ZINMC,ZINAPECUARO,56.5
-98.83,18.95,MOR,ACHMR,ACHICHIPILCO,154.9
-99.27,18.74,MOR,ALUMR,ALPUYECA                            *,67.3
-99.4,18.6,MOR,AMCMR,AMACUZAC,14.3
-98.9,18.94,MOR,ATLMR,ATLATLAHUCAN,108
-98.9,18.8,MOR,CUAMR,CUAUTLA,89.9
-99.2,18.9,MOR,CUEMR,CUERNAVACA,104.3
-99.38,18.7,MOR,CUTMR,CUAUTLITA,78.2
-98.97,18.9,MOR,ELPMR,EL PE—ON,72.5
-99.18,18.58,MOR,HIGMR,HIGUERON,32
-99.42,18.61,MOR,HUAMR,HUAJINTLAN,35
-99.02,19.03,MOR,HUIMR,HUITZILAC,65.1
-99.03,18.44,MOR,HUTMR,HUAUTLA,45.5
-98.8,18.7,MOR,JNCMR,JONACATEPEC,116.4
-99.2,18.6,MOR,JOJMR,JOJUTLA,38.2
-98.92,18.68,MOR,LCUMR,LA CUERA,41.3
-98.98,18.67,MOR,MYOMR,MOYOTEPEC,53.5
-99.15,18.52,MOR,NEXMR,NEXPA,47.8
-99.26,18.73,MOR,OACMR,OACALCO,88.9
-98.9,18.9,MOR,OAXMR,OAXTEPEC,114
-99.22,18.91,MOR,OBSMR,OBSERVATORIO,196.8
-98.76,18.88,MOR,OCTMR,OCUITUCO,200
-99.32,18.63,MOR,PIXMR,PUENTE DE IXTLA,53
-99.16,18.77,MOR,PROMR,PROGRESO,43
-99.4,18.8,MOR,RODMR,PRESA EL RODEO,67.3
-99.19,18.92,MOR,SLDMR,SOLIDARIDAD,145.1
-99.2,18.9,MOR,TEMMR,TEMIXCO,147
-99.1,18.8,MOR,TICMR,TICUMAN,63
-98.94,18.62,MOR,TLCMR,TLACUALERA,99.8
-98.75,18.75,MOR,TLOMR,TLACOTEPEC,106
-98.79,18.78,MOR,TMCMR,TEMOAC,119.4
-98.92,18.99,MOR,TOTMR,TOTOLOAPAN,123.7
-98.84,18.58,MOR,TPLMR,TEPALCINGO,83.8
-99.19,18.52,MOR,XICMR,XICATLACOTLA,32
-99.1,18.9,MOR,YAHMR,YAHUTEPEC,86.4
-98.9,18.9,MOR,YECMR,YECAPIXTLA,89.1
-99.2,18.64,MOR,ZCTMR,ZACATEPEC,41.3
-105.35,22.49,NAY,ACANR,ACAPONETA,22.9
-104.77,21.84,NAY,AGMNR,PRESA AGUAMILPA,35.5
-105.11,21.83,NAY,CAPNR,CAPOMAL,32.8
-104.5,21.94,NAY,CHPNR,CHAPALAGANA,61.7
-104.45,21.43,NAY,CJNNR,EL CAJON,9.5
-105.14,20.89,NAY,GAVNR,GAVIOTAS,64.5
-104.52,22.25,NAY,JMANR,JESUS MARIA,33.1
-105.34,22.56,NAY,LESNR,LA ESTANCIA,18.7
-105.02,22.38,NAY,PAJNR,PAJARITOS,1.1
-105.21,22.12,NAY,ROMNR,ROSA MORADA,0
-104.8,21.8,NAY,RSRNR,REG. SAN RAFAEL,31.5
-105.14,21.96,NAY,RUINR,RUIZ,34.6
-104.89,21.49,NAY,TEPNR,TEPIC,27
-100,27.23,NL,ANHNL,ANAHUAC,51
-99.82,24.1,NL,ARRNL,ARAMBERRI,18
-99.91,24.32,NL,ASCNL,LA ASCENSION,27
-99.74,24.99,NL,CABNL,CABEZONES,20.1
-99.58,24.88,NL,CAMNL,CAMACHO,21.6
-99.44,24.98,NL,CARNL,CARMEN D.L.E.,8.9
-99.26,25.72,NL,CCHNL,EL CUCHILLO,3.1
-100.16,25.95,NL,CDFNL,CIENEGA DE FLORES,15.1
-100,25.59,NL,CDRNL,CADEREYTA,39.6
-99.38,24.98,NL,CPRNL,PRESA CERRO PRIETO,11.8
-99.7,24.78,NL,CRUNL,CRUCITAS,41
-99.62,26.09,NL,CRVNL,CERRALVO,16.4
-100.17,23.68,NL,DARNL,DOCTOR ARROYO,49.2
-100.18,25.52,NL,ECSNL,EL CERRITO,42.8
-100.08,24.83,NL,GALNL,GALEANA,47.1
-100.02,25.96,NL,HGRNL,HIGUERAS,18
-100.12,25.44,NL,LBCNL,CORTINA DE LA BOCA,47.6
-99.52,25.5,NL,LERNL,LAS ENRAMADAS,5.1
-100.5,27.05,NL,LPZNL,LAMPAZOS,9.5
-99.19,26.08,NL,MDRNL,MADERO,2.4
-99.83,25.18,NL,MTMNL,MONTEMORELOS,53.7
-100.27,25.68,NL,MTRNL,MONTERREY,32.6
-100.3,25.73,NL,OBSNL,OBSERVATORIO,32.6
-99.21,24.99,NL,PAMNL,LA PAMONA                           *,10
-100.38,27.45,NL,PSANL,PRESA SALINILLAS,5.5
-100.55,25.03,NL,SRANL,SAN RAFAEL,71
-99.78,23.98,NL,ZRGNL,ZARAGOZA,65
-96.1,17.02,OAX,AYUOX,AYUTLA,117.7
-96.72,17.07,OAX,BAEOX,BASE AEREA,51.5
-95.5,16.8,OAX,BOQOX,BOQUILLA 1,3.8
-96.27,18.02,OAX,CDOOX,CERRO DE ORO (MADRID),623.5
-94.82,16.58,OAX,CHIOX,CHICAPA,25.9
-95.06,16.5,OAX,CHVOX,SANTIAGO CHIVELA,58.7
-96.87,17.83,OAX,CPAOX,CONCEPCION PAPALO,51.7
-96.95,17.8,OAX,CUIOX,CUICATLAN,21.3
-96.48,18.11,OAX,DPSOX,DIQUE PESCADITOS,273.7
-95.42,16.44,OAX,EMAOX,EL MARQUEZ (RIO TEHUANTEPEC),3
-97.77,17.81,OAX,HDLOX,HUAJUAPAN DE LEON,53.9
-97.78,17.8,OAX,HLOOX,HUAJ. DE LEON OBSERV,53.9
-95.1,16.58,OAX,IXTOX,IXTEPEC,13
-96.2,17.87,OAX,JACOX,JACATEPEC,692.2
-96.2,17.87,OAX,JDMOX,JALAPA DEL MARQUES,0
-95.03,16.43,OAX,JUCOX,JUCHITAN,4.3
-95.2,16.6,OAX,KM1OX,KM. 33+190,4.5
-95.72,16.42,OAX,KM2OX,KM. 51+740,6
-95.3,16.4,OAX,LPIOX,LAS PILAS,7
-95.49,17.46,OAX,MAROX,MARIA LOMBARDO,133.1
-96.73,17.07,OAX,OACOX,OAXACA CENTRO,69.9
-96.7,17,OAX,OAOOX,OAXACA OBS. AEROPUERTO,90.1
-94.4,16.5,OAX,OSTOX,OSTUTA,122.7
-96.08,18.17,OAX,PAPOX,PAPALOAPAN,291
-98.05,16.35,OAX,PNTOX,"PINOTEPA, ",142.4
-96.5,15.7,OAX,PTAOX,PUERTO ANGEL,23
-95.92,17.73,OAX,RMLOX,RIO MANSO LALANA,248
-97.73,16.1,OAX,RVEOX,RÌO VERDE,39.1
-95.2,16.18,OAX,SCROX,SALINA CRUZ,56.4
-96.53,17.88,OAX,SFUOX,SAN FELIPE USILA,700
-96.45,17.12,OAX,SMAOX,SAN ANTONIO CUAJIMOLOYAS,156
-96.55,18.05,OAX,STDOX,SANTO DOMINGO,368.2
-95.2,16.3,OAX,TEHOX,TEHUANTEPEC,17.6
-96.42,18.23,OAX,TEMOX,PRESIDENTE ALEMAN (TEMAZCAL),216.2
-95.6,16.42,OAX,TEQOX,TEQUISISTLAN,21.8
-96.13,18.08,OAX,TUXOX,TUXTEPEC,406.4
-94.83,16.45,OAX,UHGOX,UNION HIDALGO,17
-96.3,17.78,OAX,VANOX,VALLE NACIONAL,666.3
-97.83,17.73,OAX,YOSOX,P. YOSOCUTA,71.7
-94.22,16.4,OAX,ZANOX,ZANATEPEC,62
-97.42,19.45,PUE,ACHPB,ALCHICHILCA,52.6
-97.97,20.18,PUE,ACJPB,ACAJETE,36.2
-98.06,18.28,PUE,ADOPB,ACTALAN DE OSORIO,88.9
-98.14,18.94,PUE,AFRPB,AFRICAM,85.6
-98.15,20.03,PUE,AHUPB,AHUAZOTEPEC,94
-97.85,20.41,PUE,APAPB,APAPANTILLA,220.2
-98.41,18.91,PUE,ATXPB,ATLIXCO,104.6
-98.11,18.91,PUE,BDDPB,BALCON DEL DIABLO,76.5
-97.43,18.98,PUE,CDSPB,CIUDAD SERDAN,10.5
-97.95,18.97,PUE,CEMPB,CEMEX,60
-98.58,18.52,PUE,CHIPB,CHIETLA,66.3
-98.32,19.07,PUE,CHLPB,CHOLULA,86.2
-98.49,18.11,PUE,CHSPB,CHILA DE SAL,93.4
-98.2,19.04,PUE,CNAPB,C.N.A.,139.7
-98.05,18.83,PUE,CNGPB,CHIGNAHUAPAN,112.4
-98.16,18.61,PUE,COAPB,COATZINGO,65.7
-98.06,19.09,PUE,CPLPB,CAPULAC,96.6
-97.53,20.05,PUE,CTZPB,CUETZALAN,774.9
-98.28,18.97,PUE,ECHPB,ECHEVERRIA,97
-98.46,19.1,PUE,HJTPB,HUEJOTZINGO,80
-98.54,18.77,PUE,HQCPB,HUAQUECHULA,70
-98.05,20.18,PUE,HUAPB,HUAUCHINANGO,222.5
-97.82,19.62,PUE,IXTPB,"Ixtacamaxtitl·n, Pue.",58.4
-98.47,18.58,PUE,IZMPB,IZUCAR DE MATAMOROS,98
-97.69,19.49,PUE,LIBPB,LIBRES,51
-98.1,18.6,PUE,MAYPB,MAYORAZGO 21 PTE.,101.5
-98,20.23,PUE,NNEPB,NUEVO NECAXA,295
-97.55,19.7,PUE,OYAPB,OYAMELES,153
-97.25,18.92,PUE,PCRPB,PASO CARRETAS,66.7
-98.36,18.36,PUE,PIXPB,PIAXTLA,88.8
-97.85,20.27,PUE,PTLPB,PATLA,254.3
-98.17,19.05,PUE,PUOPB,PUEBLA OBSERVATORIO,131.2
-97.13,19.25,PUE,QUIPB,QUIMIXTLAN,63
-97.4,20.1,PUE,RNAPB,RANCHO NUEVO (AYOTOXCO),373.5
-98.22,19.11,PUE,SCRPB,SN CRISTOBAL CALERAS,160.3
-97.91,18.74,PUE,SMCPB,SAN MIGUEL CANOA,58.6
-97.45,19.96,PUE,SOLPB,P. LA SOLEDAD,529.4
-98.58,19.33,PUE,SRTPB,SANTA RITA TLAHUAPAN,136.4
-98.58,19.33,PUE,SRTPB,STA RITA TLAHUAPAN,136.4
-97.79,20,PUE,TDRPB,TEPANGO DE RODRIGUEZ,295
-97.72,18.88,PUE,TECPB,TECAMACHALCO,64.9
-97.4,18.4,PUE,TEHPB,TEHUACAN,19
-97.81,19.83,PUE,TEOPB,TETELA DE OCAMPO,220.4
-97.79,20,PUE,TEPPB,TEPANGO DE RODRIGUEZ,241.3
-97.35,19.82,PUE,TEZPB,TEZIUTLAN,328.5
-96.85,18.41,PUE,TLPPB,TLACOTEPEC DE DIAZ,197.5
-97.45,19.48,PUE,TPYPB,TEPEYAHUALCO,57
-97.72,18.87,PUE,UTTPB,"Univ. TecnolÛgica Tecamachalco, Pue.  SMN*",24.8
-97.68,20.51,PUE,VENPB,VENUSTIANO CARRANZA,168.7
-97.95,20.28,PUE,XDJPB,XICOTEPEC DE JUAREZ,321.9
-97.58,19.87,PUE,ZCPPB,ZACAPOAXTLA,359.4
-97.02,18.34,PUE,ZOQPB,ZOQUITLAN,180
-97.83,20.18,PUE,ZRGPB,ZARAGOZA,233
-100.49,20.59,QRO,ADJQT,"LAS ADJUNTAS, QRO., AUTOMATICA",41.6
-100.27,20.7,QRO,AMZQT,"AMAZCALA, QRO. AUTOMATICA",10.3
-100.35,20.5,QRO,BATQT,EL BATAN,33.7
-100.44,20.6,QRO,CARQT,CARRILLO,24
-100.07,20.42,QRO,CNSQT,CONSTITUCION DE 1917,16.3
-100.45,20.54,QRO,EPUQT,EL PUEBLITO,34.5
-100.37,20.57,QRO,GHQQT,GERENCIA HIDALGO QRO.,17.7
-100.28,20.39,QRO,HUIQT,EHCA HUIMILPAN,65.5
-99.97,20.21,QRO,IDFQT,SAN ILDEFONSO,99.2
-99.48,21.23,QRO,JLPQT,JALPAN,73.8
-100.45,20.7,QRO,JRQQT,JURIQUILLA,25.9
-100.23,20.62,QRO,MARQT,MARQUEZ,14.1
-100.37,20.57,QRO,OBSQT,OBSERVATORIO,26.5
-99.82,21.06,QRO,PMLQT,PE—AMILLER,2.8
-100,20.36,QRO,SJSQT,SAN JOSE,44.4
-86.82,21.16,QROO,CANQR,CANCUN,292.1
-88.33,18.5,QROO,CHEQR,"CHETUMAL, QROO. AUTOMATICA",211.3
-88.33,18.5,QROO,CHOQR,CHETUMAL,190.4
-86.91,20.48,QROO,CO2QR,COZUMEL. AUTOMATICA,200.4
-86.95,20.51,QROO,COZQR,COZUMEL,217.9
-88.04,19.57,QROO,FCRQR,FELIPE CARRILLO PUERTO,312
-87.08,20.62,QROO,PDCQR,PLAYA DEL CARMEN,173.7
-106.65,24.05,SIN,ACTSI,ACATITAN,4
-109.18,25.92,SIN,AHMSI,AHOME,8.9
-107.38,25.09,SIN,AL2SI,EL VAREJONAL (HIDRO) P ADOLFO LOPEZ MATEOS,1
-107.38,25.09,SIN,ALMSI,PRESA ADOLFO LOPEZ MATEOS,1
-108.7,25.7,SIN,ARCSI,ADOLFO RUIZ CORTINEZ,41
-107.47,25.03,SIN,AWSSI,ANDREW WEISS,3.5
-107.54,25.33,SIN,BDRSI,BADIRAGUATO,10
-108.33,26.74,SIN,CHXSI,"CHOIX, ESTACION",35
-107.4,24.82,SIN,CLCSI,CULIACAN,5.5
-109.33,26.1,SIN,CRRSI,EL CARRIZO,168.6
-107.35,24.32,SIN,DRDSI,EL DORADO,0
-108.08,25.47,SIN,EBLSI,PRESA EUSTAQUIO BUELNA,4
-108.62,26.43,SIN,EFTSI,EL FUERTE,18.8
-108.32,26.08,SIN,GBESI,PRESA GUILLERMO BLAKE (EL SABINAL),3
-107.91,25.85,SIN,GD2SI,BACURATO (HIDRO) P GUSTAVO DIAZ ORDAZ,4
-107.91,25.86,SIN,GDOSI,PRESA GUSTAVO DIAZ ORDAZ,4
-108.09,25.47,SIN,GMCSI,GUAMUCHIL,7.3
-108.47,25.72,SIN,GSVSI,GUASAVE,2.2
-107.23,25.34,SIN,GTNSI,GUATENIPA,0
-109.33,25.98,SIN,HDZSI,HIGUERA DE ZARAGOZA,71.1
-106.6,23.96,SIN,IXPSI,IXPALINO,0
-107.04,24.71,SIN,JGRSI,J. GRO. ALCOSER (VINORAMAS),0
-106.81,24.57,SIN,JLPSI,PRESA JOSE LOPEZ PORTILLO,0
-108.01,25.9,SIN,JNASI,JAINA,2
-108.72,26.41,SIN,JORSI,PRESA JOSEFA ORTIZ DE DOMINGUEZ,35.5
-106.9,23.92,SIN,LCRSI,LA CRUZ,0
-108.35,26.9,SIN,LD2SI,HUITES (HIDRO),61.3
-108.35,26.9,SIN,LDCSI,HUITES,39.7
-109,25.8,SIN,MCHSI,LOS MOCHIS,10.4
-106.4,23.23,SIN,MZTSI,MAZATLAN,0
-107.44,24.63,SIN,OBSSI,OBSERVATORIO CULIACAN,0
-108.58,26.51,SIN,PMHSI,PRESA MIGUEL HIDALGO,18.5
-106.47,23.56,SIN,QLTSI,QUELITE,0
-107.76,25.12,SIN,RAVSI,ESTACION RANCHO VIEJO,0
-105.85,22.98,SIN,RSRSI,ROSARIO,0
-106.95,24.48,SIN,SCRSI,SANTA CRUZ,0
-108.78,26.07,SIN,SFRSI,SUFRAGIO,20
-107.5,25.3,SIN,SJNSI,SAN JUAN,0.6
-107.1,24.8,SIN,SLRSI,SAN LORENZO,0
-106.7,24.12,SIN,SLTSI,EL SALTO (AURELIO BENASSINI),0
-107.16,24.81,SIN,SN2SI,SANALONA (HIDRO),4.2
-107.16,24.81,SIN,SNLSI,PRESA SANALONA,4.2
-106.25,23.35,SIN,SQRSI,SIQUEROS,1.3
-108.13,26.9,SIN,TBRSI,SAN FRANCISCO,35.9
-105.85,25.09,SIN,TORSI,TORTUGA,0
-107.06,24.75,SIN,VINSI,VINORAMAS,0
-107.4,25.13,SIN,ZOPSI,ZOPILOTE                            *,1
-98.56,21.97,SLP,AJTSL,LAS ADJUNTAS,87.6
-98.96,21.75,SLP,BLMSL,BALLESMI,130.8
-99.02,21.98,SLP,CDVSL,CD. VALLES,84
-100.28,22.43,SLP,CTSSL,CERRITOS,27
-99.24,21.91,SLP,GANSL,GALLINAS,181.1
-100.82,21.88,SLP,IVGSL,VALENTIN GAMA,21.9
-100.67,23.65,SLP,MA2SL,MATEHUALA. AUTOMATICA,5.8
-100.64,23.66,SLP,MATSL,MATEHUALA,25.9
-99.16,22.12,SLP,MICSL,MICOS,123.3
-98.8,21.33,SLP,MTPSL,MATLAPA,136.3
-99.32,22.52,SLP,NRJSL,NARANJOS,38.4
-100.76,21.85,SLP,OCTSL,OJO CALIENTE,21.7
-99.83,21.63,SLP,PMYSL,MONTOYA,24
-98.94,21.85,SLP,PUJSL,EL PUJAL,131
-98.89,21.43,SLP,RQTSL,REQUETEMU,324.8
-100,21.93,SLP,RVDSL,RIO VERDE,29.6
-101.68,22.63,SLP,SDHSL,SALINAS DE HIDALGO,12.5
-101,22.2,SLP,SGRSL,SOLEDAD GRACIANO,21.8
-101.02,22.15,SLP,SLPSL,SAN LUIS POTOSI,39.6
-99.06,22.02,SLP,STRSL,SANTA ROSA,72.9
-98.62,21.69,SLP,SVTSL,SAN VICENTE,116.5
-98.86,21.25,SLP,TBLSL,TIERRA BLANCA,246
-100.58,21.62,SLP,TIESL,TIERRA NUEVA,33.4
-98.77,22,SLP,TMISL,TAMUIN,139
-98.77,22,SLP,TMISL,TAMUIN OBS,139
-98.82,21.55,SLP,TMOSL,TAMPAMOLON,111.7
-98.76,21.24,SLP,TMTSL,TEMAMATLA,406.8
-101.93,22.85,SLP,VRASL,V. RAMOS                            *,12
-100.93,21.8,SLP,VRYSL,VILLA DE REYES,19.4
-110.22,30,SON,ACNSO,ACONCHI,10
-111.73,30.72,SON,ALTSO,ALTAR,0
-109.94,27.48,SON,AOBSO,PRESA ALVARO OBREGON,103.4
-109.54,31.33,SON,APTSO,AGUA PRIETA,0
-109.1,27.23,SON,ARCSO,PRESA ADOLFO RUIZ CORTINEZ,44.2
-109.09,30.07,SON,ARISO,ARIBABI,12.2
-110.92,29.08,SON,ARLSO,PRESA ABELARDO RODRIGUEZ LUJAN,1
-110.17,30.34,SON,ARZSO,ARIZPE,0
-110.24,30.6,SON,BCNSO,BACANUCHI,0
-108.93,30.36,SON,BCRSO,BACERAC,2.5
-110.22,30,SON,BNMSO,BANAMICHI,0
-109.63,27.42,SON,CCRSO,COCORAQUE,71
-111.52,30.88,SON,CHTSO,PRESA CUAUHTEMOC,0
-110.74,29.47,SON,CJNSO,EL CAJON,2
-109.94,27.5,SON,COBSO,CIUDAD OBREGON,108.8
-109.64,27.24,SON,CRCSO,CARCAMO,69
-108.76,26.6,SON,CZNSO,CAZANATE,44.5
-109.23,29.2,SON,ECBSO,EL CUBIL,33.4
-110.8,27.95,SON,EPLSO,EMPALME,19.5
-110.85,27.95,SON,GYMSO,GUAYMAS,7.6
-110.92,29.07,SON,HM2SO,HERMOSILLO OBSERVATORIO,1
-110.93,29.07,SON,HMNSO,HERMOSILLO,0
-108.96,30.21,SON,HSHSO,HUACHINERA,5
-110.89,30.76,SON,IMRSO,IMURIS,0
-110.39,28.43,SON,IRASO,P. IGNACIO R. A LA TORRE,4.5
-109.39,30.44,SON,LCDSO,PRESA LA ANGOSTURA,4.8
-110.14,29,SON,MZTSO,MAZATAN,7.8
-109.54,27.08,SON,NCHSO,NACHUQUIS,58
-109.69,30.37,SON,NCZSO,NACOZARI,0
-110.95,31.32,SON,NGLSO,NOGALES,0
-109.44,27.07,SON,NVJSO,NAVOJOA,61.5
-112.85,31.87,SON,NYNSO,SONOYTA,0
-109.93,27.37,SON,OBOSO,OBSERVATORIO CIUDAD OBREGON,103
-110.71,29.23,SON,ORGSO,EL OREGANO,1.8
-109.08,29.43,SON,PDNSO,PASO NACORI,26
-109.63,28.98,SON,PECSO,PRESA PLUTARCO ELIAS CALLES,27.2
-110.43,29.4,SON,PMOSO,EL MOLINITO,1.5
-113.58,31.3,SON,PT2SO,PUERTO PE—ASCO,0
-110.31,28.34,SON,PTASO,PUNTA DE AGUA,7.4
-112.12,30.7,SON,PTQSO,PITIQUITO,0
-111.02,30.05,SON,QRBSO,QUEROBABI,0
-110.57,29.71,SON,RAYSO,RAYON,4.5
-108.88,27.41,SON,SBNSO,SAN BERNARDO,100
-110.35,28.71,SON,SJPSO,SAN JOSE DE PIMAS                   *,2.5
-111.45,30.39,SON,SRSSO,SANTA ROSA II,0
-109.45,26.92,SON,TCRSO,3 CARLOS,0
-109.5,29.53,SON,TPCSO,TEPACHE,0
-109.21,27.66,SON,TSOSO,TESOCOMA,70
-110.29,27.64,SON,VCMSO,VICAM,84.7
-108.92,28.37,SON,YC2SO,"YECORA, SON. AUTOMATICA",42
-108.93,28.37,SON,YCRSO,YECORA,140.1
-91.48,17.43,TAB,BDCTB,BOCA DEL CERRO,449.2
-93.41,17.81,TAB,CARTB,CARDENAS,358
-92.92,17.98,TAB,EMUTB,VILLAHERMOSA,387.2
-92.81,18.04,TAB,EPOTB,EL PORVENIR,384.1
-91.75,17.75,TAB,EZATB,E. ZAPATA,86.3
-92.92,17.97,TAB,GABTB,GAVIOTAS,320.8
-93,17.98,TAB,GONTB,GONZALEZ,346.3
-92.6,17.77,TAB,MACTB,MACUSPANA,649.2
-92.93,17.98,TAB,OBSTB,OBSERVATORIO,290.2
-92.88,17.85,TAB,PNVTB,PUEBLO NUEVO,389.2
-92.94,17.57,TAB,PUYTB,PUYACATENGO,701.5
-93.29,17.98,TAB,SAMTB,SAMARIA,265.6
-92.92,17.5,TAB,SJOTB,SAN JOAQUIN,545
-91.16,17.79,TAB,SPTTB,SAN PEDRO,171.9
-92.82,17.47,TAB,TAPTB,TAPIJULAPA,630.2
-92.97,17.57,TAB,TEATB,TEAPA,667.1
-98.39,24.07,TAMPS,ABSTP,ABASOLO,0
-99.1,22.95,TAMPS,AHLTP,AHUALULCO,154.3
-97.93,22.39,TAMPS,BALTP,BOMBAS ALTAMIRA,169.2
-99.12,24.08,TAMPS,BR1TP,EL BARRETAL I,15.5
-99.22,24.1,TAMPS,BRRTP,EL BARRETAL,13.8
-98.6,26.24,TAMPS,CDOTP,S-J-2-18 CIUDAD DIAZ ORDAZ,15.2
-98.8,26.25,TAMPS,CMGTP,S-J-2-11 CAMARGO,0
-99.25,26.92,TAMPS,CMRTP,MIER,2.5
-97.82,25.64,TAMPS,CONTP,CONTROL,7
-98.94,23.94,TAMPS,CORTP,CORONA,11.2
-99.17,23.72,TAMPS,CVCTP,CIUDAD VICTORIA OBSERVATORIO,20.1
-99.19,23.73,TAMPS,CVTTP,CD. VICTORIA (GERENCIA),12.6
-99.08,23.38,TAMPS,ENNTP,LA ENCANTADA,23.8
-98.69,22.62,TAMPS,ERCTP,PRESA ESTUDIANTE RAMIRO CABALLERO,52.5
-98.16,24.84,TAMPS,FDOTP,SAN FERNANDO,6.6
-99.12,22.83,TAMPS,LSRTP,LA SERVILLETA,51.3
-99.55,24.57,TAMPS,MAGTP,MAGUEYES,27.5
-97.52,25.83,TAMPS,MATTP,MATAMOROS,12
-97.84,22.28,TAMPS,MDRTP,MADERO,223.6
-99.04,26.37,TAMPS,MGATP,S-J-1-2 MIGUEL ALEMAN,0
-99.43,23.92,TAMPS,MHGTP,MIGUEL HIDALGO,6.5
-98.92,26.23,TAMPS,MRGTP,PRESA MARTE R. GOMEZ,0
-98.9,24.05,TAMPS,PADTP,PADILLA,10.5
-97.8,25.8,TAMPS,PANTP,PUEBLO ANAHUAC,2.5
-98.75,23.73,TAMPS,PDMTP,PASO DE MOLINA,30.9
-98.9,24.14,TAMPS,PILTP,PILON,8.8
-99.55,24.23,TAMPS,PJMTP,PRESA PEDRO J. MENDEZ,32.6
-99.58,24.18,TAMPS,PVLTP,PUERTO DE VALLES,13.9
-99,22.85,TAMPS,RFRTP,RIO FRIO,43.8
-98,25.97,TAMPS,RIBTP,RIO BRAVO,20.3
-97.99,23.26,TAMPS,RSPTP,REPUBLICA ESPAÒOLA,13.8
-98.88,26.17,TAMPS,RYNTP,S-J-2-9 REYNOSA,3
-99.09,23.02,TAMPS,SBNTP,SABINAS,110.1
-98.87,22.78,TAMPS,SDATP,PRESA SACA DE AGUA,50.9
-98.79,23.08,TAMPS,SGBTP,SAN GABRIEL,21.6
-98.21,23.77,TAMPS,SLMTP,SOTO LA MARINA,39.7
-98.8,22.95,TAMPS,SLZTP,PRESA SAN LORENZO,97.6
-97.88,22.24,TAMPS,TMPTP,TAMPICO,224.4
-98.42,22.42,TAMPS,TMSTP,TAMESI,88.5
-97.8,25.91,TAMPS,VCATP,VILLA CARDENAS,9
-98.55,23.97,TAMPS,VGRTP,PRESA VICENTE GUERRERO,44.3
-97.8,25.7,TAMPS,VHMTP,VALLE HERMOSO,2.5
-98.1,19.4,TLAX,APITL,APIZACO,125.5
-98.56,19.59,TLAX,CPPTL,CALPULALPAN,40.8
-97.74,19.3,TLAX,CUATL,CUAPIAXTLA,42.5
-97.65,19.32,TLAX,ECTTL,EL CARMEN TEQUEXQUITLA,32.5
-97.95,19.31,TLAX,HUATL,"Huamantla, Tlax.  SMN*",46
-97.91,19.32,TLAX,HMTTL,HUAMANTLA,81.2
-98.2,19.4,TLAX,OBSTL,OBSERVATORIO,106.9
-98.2,19.55,TLAX,SJATL,SAN JOSE ATLANGA,72.5
-98.18,19.12,TLAX,SPMTL,SAN PABLO DEL MONTE,170
-98.24,19.22,TLAX,ZACTL,ZACATELCO,111
-97.92,19.2,TLAX,ZITTL,ZITLALTEPEC                         *,113.5
-96.84,19.7,VER,ACAVC,ACATLAN,242.8
-96.59,19.5,VER,ACTVC,ACTOPAN,66.1
-94.14,18.14,VER,AGDVC,AGUA DULCE (CENTRO),760.3
-97.68,20.93,VER,ALAVC,ALAMO TEMAPACHE,300
-97.23,19.76,VER,ALTVC,ALTOTONGA,401.8
-95.44,18.58,VER,ARCVC,ANGEL R. CABADA,445.9
-96.94,19.59,VER,BANVC,BANDERILLA,134
-96.93,19.48,VER,BRIVC,BRIONES,142.5
-95.74,18.37,VER,CACVC,CARLOS CARRILLO,158
-95.8,18.3,VER,CCLVC,CHACALTIANGUIS,253.3
-96.7,19.43,VER,CEGVC,"Cerro Gordo, Ver.",139.4
-98.15,21.74,VER,CHYVC,PASO DE PIEDRAS (CHICAYAN),98
-97.55,21.07,VER,CLHVC,CHALAHUITE,193.6
-96.94,19.45,VER,COAVC,COATEPEC,135.4
-94.4,18.1,VER,COTVC,COATZACOALCOS,663.9
-96.37,19.36,VER,CRDVC,CARDEL,75.1
-96.65,19.32,VER,CRRVC,CARRIZAL,69
-95.3,18.14,VER,CTTVC,COATOTOLAPAN,185.1
-96.36,19.41,VER,ENRVC,EL NARANJILLO,10.5
-98.33,20.25,VER,ESPVC,EL ESPINAL,281.3
-96.16,19.07,VER,ETEVC,EL TEJAR,95.5
-95.56,18.27,VER,GARVC,GARRO,227.7
-98.44,21.78,VER,HGOVC,EL HIGO,84.2
-98.27,21.16,VER,HLSVC,LOS HULES,148.2
-96.95,19.18,VER,HTSVC,HUATUSCO,184.7
-98.48,20.53,VER,HUYVC,HUAYACOCOTLA,172.5
-96.55,19.4,VER,IDOVC,IDOLOS,42.9
-96.88,19.6,VER,INCVC,INGENIO CONCEPCION,83.5
-94.67,17.95,VER,JALVC,JALTIPAN,364.2
-95.03,17.43,VER,JCRVC,JESUS CARRANZA,300.4
-94.09,17.87,VER,JDCVC,SAN JOSE DEL CARMEN,533
-97.02,19.6,VER,JOYVC,LA JOYA,217.5
-95.35,18.25,VER,LAUVC,LAUCHAPAN,207.1
-94.3,18.1,VER,LCAVC,LA CANGREJERA,818.3
-95.45,18.23,VER,LCEVC,LA CEIBILLA,318.9
-97.23,18.92,VER,LGRVC,LOMA GRANDE,40.6
-96.98,20.05,VER,LIBVC,LIBERTAD,335.7
-96.39,19.26,VER,LOFVC,LOMA FINA,51
-94.92,17.42,VER,LPEVC,LAS PERLAS,232.5
-97.1,19.65,VER,LVRVC,LAS VIGAS DE RAMIREZ,79
-97.05,20.07,VER,MDTVC,MARTINEZ DE LA TORRE,246.6
-96.34,19.09,VER,MFAVC,MANLIO F. ALTAMIRANO,72
-94.52,17.97,VER,MINVC,MINATITLAN,566
-94.94,18.13,VER,MNZVC,MINZAPAN,400.9
-96.83,19.93,VER,MZNVC,MISANTLA,454.9
-96.87,19.65,VER,NAOVC,NAOLINCO,144.1
-95.52,18.63,VER,NLTVC,"NARANJAL, LERDO DE TEJADA",472.7
-98.51,21.84,VER,OLVVC,EL OLIVO,120.6
-97.1,18.85,VER,ORZVC,ORIZABA,225.5
-94.33,18.11,VER,PCNVC,PB1-LA CANGREJERA,481
-96.14,19.04,VER,PDTVC,PASO DEL TORO,105.9
-97.81,21.18,VER,PEMVC,PRESA EL MORALILLO,147.3
-97.25,19.58,VER,PERVC,PEROTE,42.4
-98.17,22.05,VER,PNCVC,PANUCO,131.7
-97.32,20.45,VER,PPNVC,PAPANTLA,378.3
-97.48,20.54,VER,PRCVC,POZA RICA,148.8
-98.34,21.29,VER,PSNVC,PLATON SANCHEZ,202.2
-95.82,17.83,VER,PVCVC,PLAYA VICENTE,218.6
-95.63,18.72,VER,RALVC,RADAR ALVARADO,302.9
-96.71,20.16,VER,RAUVC,EL RAUDAL,400.4
-96.55,19.35,VER,RNCVC,RINCONADA,63
-97.78,20.88,VER,SBTVC,SOMBRERETE,189
-95.18,18.45,VER,SIHVC,SIHUAPAN,439.8
-95.13,17.88,VER,SJEVC,SAN JUAN EVANGELISTA,152.5
-95.03,18.52,VER,SONVC,SONTECOMAPAN,577.6
-96.49,19.34,VER,TAMVC,TAMARINDO,35
-96.35,18.45,VER,TBLVC,TIERRA BLANCA,55
-96.97,19.38,VER,TCOVC,TEOCELO,71.5
-94.16,17.57,VER,TMOVC,TIERRA MORADA,441.7
-98.38,21.52,VER,TMPVC,TEMPOAL,171.2
-96.92,19.81,VER,TNCVC,TENOCHTITLAN,473.1
-98.14,21.04,VER,TRRVC,TERRERILLOS,71.4
-97.42,20.95,VER,TUXVC,"TUXPAN, VER. AUTOMATICA",57
-97.4,20.96,VER,TXPVC,TUXPAN,276.7
-95.42,18.47,VER,TZAVC,TRES ZAPOTES,474.6
-95.7,18.08,VER,VAZVC,VILLA AZUETA,142
-96.11,19.15,VER,VERVC,VERACRUZ,225.1
-96.58,19.02,VER,VTEVC,VILLA TEJEDA,95
-96.92,19.53,VER,XCEVC,XALAPA CENTRO,139.9
-96.85,19.55,VER,XCFVC,XALAPA CFE,162.9
-96.92,19.53,VER,XOBVC,XALAPA OBSERVATORIO,109.5
-89.35,19.83,YUC,BECYC,BECANCHEN,164
-89.58,20.5,YUC,CANYC,CANTAMAYEN,78.7
-88.47,20.39,YUC,CHIYC,CHANCHICHIMILA                      *,75.5
-89.68,20.65,YUC,CHOYC,CHOCHOLA,210.8
-89.98,20.98,YUC,CICYC,CENTRO DE INV.CIENTIFICA,151.9
-87.78,21.52,YUC,CYOYC,EL CUYO,178
-89.58,20.98,YUC,EZAYC,EMILIANO ZAPATA,273.2
-89.63,20.98,YUC,FAEYC,FUERZA AEREA,182
-89.61,21.05,YUC,FIYYC,FIUADY,93.7
-89.66,20.98,YUC,GARYC,GERENCIA REGIONAL,158.6
-89.6,21,YUC,MEOYC,MERIDA OBSERVATORIO,157.9
-89.28,21.08,YUC,MTOYC,MOTUL,175.5
-89.71,20.49,YUC,MUNYC,MUNA,221.8
-89.39,20.29,YUC,OXKYC,OXKUTZCAB,251.3
-88.95,19.96,YUC,PETYC,PETO,206
-89.6,21.3,YUC,PROYC,PROGRESO,60.2
-88.15,21.59,YUC,RLAYC,R.LAGARTO,73.9
-89.54,20.4,YUC,TICYC,TICUL,220.5
-88.17,21.16,YUC,TIZYC,TIZIMIN,201.9
-89.05,20.18,YUC,TNTYC,"TANTANQUIN, YUC. AUTOMATICA",73.8
-88.2,20.7,YUC,VALYC,VALLADOLID,204.6
-103.23,22.33,ZAC,ACHZC,ACHIMEC,37.2
-103.46,21.81,ZAC,ATGZC,ATOLINGA,79.2
-102.97,22.82,ZAC,BTEZC,BOCA DEL TESORERO,72.6
-102.89,22,ZAC,CHIZC,EL CHIQUE,27.5
-101.39,24.62,ZAC,CORZC,CONCEPCION DEL ORO,33.5
-102.35,22.45,ZAC,CUAZC,CD. CUAUHT…MOC,60
-103.09,23.69,ZAC,ELCZC,EL CAZADERO,23.4
-102.04,22.67,ZAC,ELSZC,EL SALADILLO,47.9
-103.34,21.65,ZAC,EXCZC,P.MIGUEL ALEMAN (EXCAME),96.6
-102.89,23.17,ZAC,FREZC,FRESNILLO,22
-103.09,21.93,ZAC,GJAZC,JOAQUIN AMARO,79
-102.51,22.75,ZAC,GPEZC,GUADALUPE,86
-102.46,22.49,ZAC,GRCZC,GENARO CODINA,125
-103.4,24.28,ZAC,JALZC,JUAN ALDAMA,48.5
-103.11,21.4,ZAC,JCHZC,JUCHIPILA,30
-103,22.64,ZAC,JERZC,JEREZ,56
-102.57,22.78,ZAC,LBUZC,LA BUFA,53.7
-103.6,22.69,ZAC,LFLZC,LA FLORIDA,53
-102.66,23,ZAC,LLBZC,LLANO BLANCO                        *,46.3
-102.25,22.44,ZAC,LMOZC,LUIS MOYA,82
-103.38,22.84,ZAC,LOBZC,LOBATOS,34.5
-101.99,22.26,ZAC,LORZC,LORETO,26.3
-103.21,23.18,ZAC,LREZC,LEOBARDO REYNOSO,71.1
-103.44,24.29,ZAC,MGAZC,MIGUEL AUZA,0
-103.36,21.21,ZAC,MORZC,MEZQUITAL DEL ORO,19
-103.56,22.31,ZAC,MRSZC,MONTE ESCOBEDO,38.8
-102.85,21.36,ZAC,NCTZC,NOCHISTLAN,66.9
-102.27,22.58,ZAC,OCAZC,OJO CALIENTE,60.4
-102.8,22.35,ZAC,PALZC,PALOMAS,96.1
-101.4,22.12,ZAC,PINZC,PINO SUAREZ,75.5
-102.9,21.72,ZAC,PMOZC,PRESA MORALE—OS,21.9
-103.03,23.82,ZAC,RGRZC,RIO GRANDE,14.6
-102.88,24.32,ZAC,SFOZC,SAN FRANCISCO,44.3
-103.51,24.29,ZAC,SGOZC,SANTIAGO,28.5
-103.64,23.64,ZAC,SOMZC,SOMBRERETE,52.8
-103.5,22.33,ZAC,STEZC,SANTA TERESA,43.4
-103.11,22.93,ZAC,STRZC,SANTA ROSA,65.3
-102.87,22.1,ZAC,TAYZC,TAYAHUA,38.2
-103.88,23.47,ZAC,TCHZC,CHALCHIHUTES,77
-103.46,21.47,ZAC,TGOZC,TEUL DE GONZALEZ  ORTEGA,62
-102.79,21.56,ZAC,TLAZC,TLALCHICHILA,26.3
-103.31,21.77,ZAC,TLLZC,TLATENANGO,50.7
-102.34,23.29,ZAC,VCOZC,VILLA DE COSS,2.5
-101.92,22.52,ZAC,VGOZC,VILLA GONZALEZ ORTEGA,41.5
-101.72,22.35,ZAC,VHGZC,VILLA HIDALGO,33.4
-103.34,21.6,ZAC,VILZC,VILLITA,105.7
-102.58,22.76,ZAC,ZACZC,ZACATECAS,57.5
