LON,LAT,ESTADO,CVE_SIH,NOMBRE_ESTACION,NOV
-102.31,21.9,AGS,AGSAG,AGUASCALIENTES,20.6
-102.59,22.18,AGS,ALMAG,ALAMITOS (CAMPAMENTO),56.1
-102.47,22.19,AGS,ANVAG,CINCUENTA ANIVERSARIO,44.7
-102.67,22,AGS,CDRAG,LA CODORNIZ,31.7
-102.2,22.01,AGS,CHOAG,CAÒADA HONDA,31.4
-102.19,21.83,AGS,CLVAG,CALVILLITO,32.7
-102,21.9,AGS,CNSAG,LOS CONOS,31.5
-102.3,22.36,AGS,CSOAG,COSIO,35
-102.35,22.12,AGS,JCQAG,JOCOQUE,31.5
-102.8,21.79,AGS,MNLAG,MEDIA LUNA,43.3
-102.44,21.78,AGS,NGRAG,EL NIAGARA,42.7
-102,22.02,AGS,NVLAG,EL NOVILLO                         *,30
-102.29,21.85,AGS,OBSAG,OBSERVATORIO,33.4
-101.97,21.92,AGS,PALAG,PALO ALTO,20.3
-102.29,22.16,AGS,PBLAG,PABELLON,25.6
-102.42,22.14,AGS,PECAG,CALLES,36.5
-102.14,22.2,AGS,PTOAG,PUERTO DE LA CONCEPCION,25.7
-102.44,22.24,AGS,PTRAG,POTRERILLOS,32.8
-102.11,21.89,AGS,SNVAG,SANDOVALES,41.5
-102.13,21.81,AGS,TNJAG,LA TINAJA II,33.7
-102.07,22.1,AGS,VJZAG,VILLA JUAREZ,41.5
-116.2,32.27,BC,AGHBN,AGUA HECHICERA,22.9
-116.91,32.45,BC,ALRBN,ABELARDO L. RODRIGUEZ,10.1
-113.56,28.9,BC,BAABN,"BAHIA DE LOS ANGELES, BC.  SMN",81.3
-116.7,32.48,BC,CRRBN,EL CARRIZO,6.2
-113.46,27.64,BC,DIABN,"Gustavo DÌçaz Ordaz, B.C.S.  SMN*",8.8
-116.81,32.47,BC,EFLBN,EL FLORIDO,8
-116.17,31.1,BC,ELZBN,EMILIO LOPEZ ZAMORA,13.2
-115.19,32.41,BC,ENLBN,EJIDO NUEVO LEON,29
-116.3,32.52,BC,HNGBN,EL HONGO,18.3
-116.81,32.1,BC,LAMBN,LA MISION,0
-115.27,32.39,BC,MXCBN,MEXICALI,12.3
-114.73,32.7,BC,PDMBN,PRESA DERIVADORA MORELOS,4.5
-116.6,31.89,BC,PLZBN,"LÛpez Zamora, B.C.  SMN*",30.9
-114.85,31.03,BC,SFLBN,SAN FELIPE,0.5
-115.94,30.53,BC,SQNBN,"San Quintin, B.C. SMN*",44.4
-111.66,25,BCS,CCNBS,CD. CONSTITUCION,0.2
-111.66,25.01,BCS,CONBS,CD. CONSTITUCION (AUTOMATICA),0.5
-109.91,22.88,BCS,CSLBS,CABO SAN LUCAS,16
-113.42,27.78,BCS,DORBS,DIAZ ORDAZ,8.5
-114.05,27.97,BCS,GNGBS,GUERRERO NEGRO,8
-109.7,23.68,BCS,LBABS,LOS BARRILES,3
-110.37,24.15,BCS,LPZBS,LA PAZ,0
-111.34,26.02,BCS,LRTBS,LORETO,0
-112,26.87,BCS,MLGBS,MULEGE,0
-109.98,24.07,BCS,PLNBS,LOS PLANES,2
-109.55,23.58,BCS,RBRBS,LA RIBERA,2
-110.05,23.8,BCS,SANBS,SAN ANTONIO,0
-109.6,23.03,BCS,SARBS,EL SARGENTO,8
-109.88,23.72,BCS,SBABS,SAN BARTOLO,13
-109.67,23.05,BCS,SJCBS,SAN JOSE DEL CABO,17
-109.72,23.45,BCS,SNTBS,SANTIAGO,9.2
-112.28,27.3,BCS,SRLBS,SANTA ROSALIA,0
-112.27,27.34,BCS,STRBS,"SANTA ROSALÕA, BCS. AUTOMATICA",0
-110.22,23.43,BCS,TSNBS,TODOS SANTOS,0
-89.74,20,CAMP,BOLCA,BOLONCHEN,234
-90.72,19.36,CAMP,CANCA,CANASAYAB,154
-90.55,19.85,CAMP,CAMCA,"Campeche, Camp.  SMN*",226.6
-91.76,18.65,CAMP,CARCA,EL CARMEN,379.3
-90.72,19.36,CAMP,CHMCA,CHAMPOTON,104
-90.54,19.84,CAMP,CMPCA,CAMPECHE,137.5
-91.05,18.18,CAMP,CNDCA,CANDELARIA,275
-90.54,19.84,CAMP,COBCA,CAMPECHE OBSERVATORIO,183.5
-90.74,18.61,CAMP,ESCCA,ESCARCEGA,155.4
-90.14,20.2,CAMP,HECCA,HECELCHAKAN,141.9
-89.84,19.76,CAMP,HPOCA,HOPELCHEN,115.8
-90.22,19.44,CAMP,NYXCA,NOH-YAXCHE,296.6
-92.09,18.13,CAMP,PLZCA,PALIZADA,300.5
-91.2,18.9,CAMP,SBNCA,SABANCUY,52.5
-108.08,29.22,CHIH,C08219,"PE—ITAS, MADERA",38
-107.63,28.52,CHIH,AGZCH,PRESA ABRAHAM GONZALEZ,6.5
-107.25,28.8,CHIH,BACCH,BACHINIVA,4
-108.21,28.2,CHIH,BASCH,"Basaseachic, Chih.  SMN*",80.9
-108.21,28.21,CHIH,BSSCH,BASSASEACHIC,80.8
-107.72,27.03,CHIH,BTPCH,BATOPILAS,75.2
-107.9,27.9,CHIH,BTVCH,BATOVIRA,74.5
-107.9,30.5,CHIH,CAGCH,CASAS GRANDES,13.7
-105.17,27.69,CHIH,CCOCH,CD. CAMARGO,55
-105.46,28.2,CHIH,CDLCH,CD. DELICIAS,30.5
-108.54,27.39,CHIH,CHICH,"CHINIPAS, (AUTOMATICA)",31.2
-106.17,28.57,CHIH,CHUCH,PRESA CHIHUAHUA,33.4
-106.44,31.74,CHIH,CJZCH,CD. JUAREZ,1
-105.38,27.41,CHIH,CLNCH,COLINA,50.5
-108.54,27.42,CHIH,CNDCH,CHINIPAS,28
-107.64,27.76,CHIH,CRLCH,CREEL,72.5
-106.11,28.61,CHIH,ERECH,PRESA EL REJON,33.3
-105.63,28.17,CHIH,FIMCH,P. FRANCISCO I. MADERO,35.5
-107.07,26.82,CHIH,GCCCH,"GUACHOCHI, (AUTOMATICA)",39.9
-108.3,29.2,CHIH,GPCCH,GUAPOCA,22.8
-106.96,26.1,CHIH,GYCCH,GUADALUPE Y CALVO,194
-107.88,26.87,CHIH,IGNCH,SAN IGNACIO,71
-104.92,27.12,CHIH,JMNCH,JIMENEZ,70
-105.39,27.54,CHIH,LBQCH,LA BOQUILLA,40.7
-106.98,29.94,CHIH,LJSCH,PRESA LAS LAJAS,4.5
-105.28,28.98,CHIH,LLNCH,PRESA LUIS L. LEON,45.5
-107.99,27.86,CHIH,MAGCH,"MAGUARICHI, (AUTOMATICA)",0.3
-104.4,29.57,CHIH,OJNCH,OJINAGA,19
-105.55,26.55,CHIH,PAGCH,PICO DE AGUILA,67.2
-105.7,26.9,CHIH,PRRCH,PARRAL,52.7
-106.09,28.66,CHIH,QIJCH,OBSERVATORIO CHIHUAHUA,43.4
-107.85,28.95,CHIH,TMCCH,TEMOSACHIC,5.4
-107.4,29.56,CHIH,TNTCH,PRESA EL TINTERO,2
-107.84,27.3,CHIH,URECH,URIQUE ESTACION  II,118.3
-107.92,27.22,CHIH,URICH,"URIQUE, (AUTOMATICA)",39.6
-105.16,26.75,CHIH,VICCH,VILLA CORONADO,67
-105.81,27.45,CHIH,VZRCH,VALLE DE ZARAGOZA,77
-108.38,28.42,CHIH,YEPCH,YEPACHE,15
-92.8,16.55,CHIS,ACACP,ACALA,10.9
-92.76,16.45,CHIS,ANGCP,ANGOSTURA,5.8
-93.9,16.24,CHIS,AROCP,ARRIAGA METEOROLOGICO,32
-93.15,16.64,CHIS,BOQCP,BOQUERON,10.1
-92.72,15.35,CHIS,CACCP,CACALUTA,313.4
-92.48,16.31,CHIS,CASCP,CASCAJAL,33.6
-93.1,16.93,CHIS,CHICP,CHICOASEN,23.3
-92.28,15.75,CHIS,CHMCP,CHICOMUSELO,186.7
-92.1,16.2,CHIS,COOCP,COMITAN METEOROLOGICO,58.5
-92.58,15.2,CHIS,DESCP,DESPOBLADO,221.5
-92.95,15.5,CHIS,ELNCP,EL NOVILLERO,140
-92.67,15.32,CHIS,ESCCP,ESCUINTLA,155.1
-93.13,16.64,CHIS,GRICP,GRIJALVA,26.9
-92.47,15.13,CHIS,HUICP,HUIXTLA,291.3
-92.73,15.87,CHIS,JAPCP,JALTENANGO,106.6
-92.92,15.92,CHIS,JSBCP,JUAN SABINES (CUSTAPEQUES),0.3
-93.56,16.7,CHIS,LFLCP,LAS FLORES,27.9
-93.58,17.22,CHIS,MALCP,MALPASO (NETZAHUALCOYOTL),415.3
-92.88,15.45,CHIS,MAPCP,MAPASTEPEC,287
-93.16,17.22,CHIS,OCOCP,OCOTEPEC,785.7
-91.97,15.85,CHIS,PCOCP,PUENTE CONCORDIA,62.6
-93.45,17.41,CHIS,PE•CP,PRESA PE—ITAS,651.4
-93.22,15.69,CHIS,PIJCP,PIJIJIAPAN,61.2
-93.39,17.58,CHIS,PLACP,PLATANAR                            *,557.5
-93.55,17.35,CHIS,RCACP,ROMULO CALZADA,566.8
-92.67,15.92,CHIS,REFCP,REFORMA,76
-93.75,16.16,CHIS,REVCP,REVOLUCION MEXICANA,27.5
-92.35,17.57,CHIS,SAACP,SALTO DE AGUA,489.1
-93.38,17.43,CHIS,SAYCP,SAYULA,1269.4
-92.63,16.73,CHIS,SCOCP,SAN CRISTOBAL METEOROLOGICO,31.5
-92.62,16.74,CHIS,SCRCP,SAN CRISTOBAL,50.7
-92.11,15.78,CHIS,SDOCP,SANTO DOMINGO,7.4
-92.24,15.78,CHIS,SMICP,SAN MIGUEL,102.9
-92.82,16.94,CHIS,SNACP,SANTA MARIA,278.6
-92.72,14.95,CHIS,TAMCP,TAPACHULA (MALPASO II),105.5
-92.25,14.92,CHIS,TAPCP,TAPACHULA OBSERVATORIO,190.8
-93.75,16.09,CHIS,TONCP,TONALA,1.1
-93.53,15.88,CHIS,TPICP,TRES PICOS,4.7
-93.02,17.75,CHIS,TUXCP,TUXTLA GUTIERREZ PALMAS,19.3
-93.13,16.75,CHIS,TXOCP,TUXTLA GTZ. OBSERVATORIO,21.1
-93.27,16.23,CHIS,VIFCP,VILLA FLORES,37
-93.33,17.12,CHIS,YAMCP,YAMANHO,371.7
-100.84,28.34,COAH,ADLCL,ALLENDE,42
-101.06,29.44,COAH,AMSCL,PRESA AMISTAD,19.5
-100.45,25.52,COAH,ARACL,RAMOS ARIZPE,2.2
-100.93,25.55,COAH,ARACL,RAMOS ARIZPE AEROPUERTO,2.2
-102.1,27,COAH,CCGCL,CUATRO CIENEGAS                     *,20.4
-100.95,29.33,COAH,CDACL,CIUDAD ACUÒA,17.6
-100.65,26.84,COAH,CDLCL,CANDELA,40
-100.94,29.21,COAH,CNTCL,PRESA EL CENTENARIO,10
-103.47,25.54,COAH,CYTCL,COYOTE,21
-100.9,25.43,COAH,ESLCL,E. C. SALTILLO,29.5
-100.82,28.82,COAH,LFGCL,LA FRAGUA,24.3
-103.28,25.07,COAH,LFLDR,LA FLOR,24.2
-103.2,25.6,COAH,MATCL,MATAMOROS SL,23.5
-101.42,26.91,COAH,MCVCL,MONCLOVA,51.5
-101.51,27.88,COAH,MZQCL,MUZQUIZ,44
-102.4,27.32,COAH,OCMCL,OCAMPO,71.5
-102.18,25.44,COAH,PARCL,PARRAS,29.5
-100.52,28.67,COAH,PNGCL,PIEDRAS NEGRAS,30.3
-101,25.46,COAH,PRSCL,PROGRESO,23
-100.57,25.27,COAH,SAACL,SAN ANTONIO DE LAS ALAZANAS,63
-101.01,25.42,COAH,SALCL,SALTILLO (BELLAVISTA),32
-101.12,27.84,COAH,SBNCL,SABINAS,64
-100.95,29.04,COAH,SMGCL,PRESA SAN MIGUEL,19
-103.7,27.29,COAH,SMJCL,SIERRA MOJADA,173
-102.98,25.76,COAH,SPECL,SAN PEDRO,10.7
-101.02,25.38,COAH,STOCL,SALTILLO,12.8
-103.45,25.54,COAH,TORCL,TORREON OBSERVATORIO,26.6
-100.73,27.5,COAH,VCRCL,PRESA VENUSTIANO CARRANZA,28.2
-101.9,29,COAH,ZPTCL,ZAPATA,26
-103.61,19.25,COL,BVSCM,BUENA VISTA,113
-103.72,18.75,COL,CDOCM,CERRO DE ORTEGA,62
-103.71,19.3,COL,CHNCM,EL CHANAL,89.2
-103.63,18.81,COL,CLLCM,CALLEJONES,84.5
-103.76,19.32,COL,CMLCM,COMALA,83.4
-103.8,19.21,COL,CQMCM,COQUIMATLAN,115.8
-103.6,19.33,COL,CUACM,CUAHTEMOC,70
-103.88,19.11,COL,DJLCM,DERIVADORA JALA,148.3
-103.87,19.17,COL,LAECM,LA ESPERANZA,22.5
-103.87,18.9,COL,LDACM,LAGUNA DE AMELA,173.6
-103.73,19.22,COL,LPSCM,LA POSTA,82.1
-104.32,19.04,COL,MNZCM,MANZANILLO,123.4
-103.82,19.27,COL,PNTCM,PEÒITAS,121.7
-103.73,19.22,COL,RDRCM,RADAR,110
-103.7,19.41,COL,SCHCM,SUCHITLAN,69.5
-103.88,18.93,COL,TCMCM,TECOMAN,141
-103.52,19.25,COL,TRJCM,TROJES,82.5
-103.66,19.28,COL,TRPCM,TRAPICHE,88.3
-99.21,19.22,DF,AJSDF,AJUSCO,88.2
-99.17,19.45,DF,CBIDF,"ESCUELA NACIONAL DE CIENCIAS BIOLOGICAS, IPN (AUTOMATICA)",52.8
-99.18,19.35,DF,CCUDF,CENTRO UNIVERSITARIO,31.9
-99,19.36,DF,CDMDF,CARCEL DE MUJERES,37.3
-99.11,19.41,DF,CDVDF,CIUDAD DEPORTIVA,32
-99.18,19.5,DF,CEADF,CAMPAMENTO AMEALCO,18
-99.21,19.16,DF,CFSDF,CASETA FORESTAL,0
-99.14,19.47,DF,CMTDF,CIEN METROS,6.4
-99.18,19.49,DF,CMYDF,CAMPO MECOAYA,51.9
-99.09,19.19,DF,CTNDF,CUAUTENCO,36.1
-99.09,19.48,DF,CYLDF,COYOL,5.8
-99.21,19.3,DF,DATDF,DESVIACION ALTA                     *,5
-99.13,19.43,DF,DDFDF,GOBIERNO DEL D. F.,45.7
-99.31,19.31,DF,DTLDF,DESIERTO DE LOS LEONES,42.7
-99.15,19.38,DF,DVLDF,DEL VALLE,56
-99.16,19.3,DF,EAZDF,ESTADIO AZTECA,86.1
-99.29,19.36,DF,EYQDF,EL YAQUI,0
-99.35,19.3,DF,EZCDF,EL ZARCO,58
-99.07,19.49,DF,GCNDF,KM. 6+250 (GRAN CANAL),6.7
-99.26,19.31,DF,HYTDF,HUAYATLA,11.6
-99.3,19.34,DF,LVNDF,LA VENTA,72
-99.28,19.22,DF,MAGDF,MONTE ALEGRE,100.4
-99.13,19.4,DF,MCRDF,M. CARRILLO,33.9
-99.03,19.19,DF,MLPDF,MILPA ALTA,15.6
-99.23,19.19,DF,MZTDF,P ABASOLO(MEZONTEPEC),113.9
-99.1,19.32,DF,OCSDF,OFICINA CAVM SUR,86.9
-99.1,19.38,DF,PBADF,P. B. ACULCO,32.1
-99.06,19.43,DF,PBCDF,P. B. CHURUBUSCO L(CH.LAGO),16.4
-99.12,19.49,DF,PBLDF,P. B. LINDAVISTA,26.5
-99.04,19.38,DF,PBODF,P. B. U. E. DE ORIENTE,18.6
-99.17,19.44,DF,PBTDF,P. B. TIZOC,79.9
-99.2,19.41,DF,PCHDF,PTA. CHAPULTEPEC,79.1
-99.1,19.46,DF,PGNDF,PLANTA GENERADORA 101,11
-99.08,19.34,DF,PLEDF,P. T. LA ESTRELLA,51.3
-99.07,19.42,DF,PLMDF,P. B. LOPEZ MATEOS,12.1
-99.13,19.37,DF,PMLDF,P. B. MUNICIPIO LIBRE,40.3
-99.09,19.25,DF,PNTDF,PLANTA NATIVITAS,83.6
-99.26,19.29,DF,PRMDF,P. T. RIO MAGDALENA,79.6
-99.15,19.51,DF,PRRDF,P. T. RIO REMEDIOS,14.2
-99.02,19.3,DF,PSCDF,P. T. SANTA CATARINA,30.5
-99.05,19.23,DF,PSLDF,PLANTA SAN LUIS,28.6
-99.16,19.47,DF,PSNDF,P. B. NUEVA SANTA MARIA,29.8
-99.17,19.26,DF,PSPDF,"P. SAN PEDRO MARTIR, DF",42
-99.19,19.51,DF,PTRDF,P. T. ROSARIO,93
-99.13,19.29,DF,PVCDF,P. B. VILLA COAPA,49.5
-99.14,19.33,DF,PXTDF,PLANTA XOTEPINGO,57.6
-99.19,19.3,DF,RBTDF,REBOMBEO BOSQUE TLALPAN(B TLALPAN),63.1
-99.17,19.4,DF,RCMDF,RADIO COMUNICACION,38.7
-99,19.17,DF,SANDF,SANTA ANA,13.4
-99.28,19.33,DF,SBADF,SAN BARTOLO AMEYALCO,45.2
-99.03,19.34,DF,SCMDF,SANTA CRUZ MEYEHUALCO,25.9
-99.12,19.58,DF,SGDDF,SIERRA GUADALUPE,0.5
-99.07,19.47,DF,SJADF,SAN JUAN DE ARAGON,9.9
-99.01,19.28,DF,SPPDF,SAN PEDRO TLAHUAC,51.4
-98.96,19.32,DF,SSCDF,S. ELEC. SANTA CATARINA(LA CALERA),24.2
-99.14,19.56,DF,TCMDF,TANQUE CHALMITA,12.7
-99.27,19.37,DF,TECDF,TANQUE EL CARTERO,0
-99.25,19.33,DF,TELDF,TANQUE EL LIENZO,35
-99.1,19.39,DF,TEZDF,"TEZONTLE, (AUTOMATICA)",28.7
-99.21,19.4,DF,TNGDF,TRIANGULO,34.9
-99.14,19.2,DF,TPJDF,TOPILEJO,41.4
-99.08,19.44,DF,TPNDF,TANQUE PEÒON,9.7
-99.21,19.36,DF,TRGDF,TARANGO,42.5
-99.25,19.32,DF,TSFDF,T. SAN FRANCISCO,46.2
-99.23,19.44,DF,TSJDF,T. SAN JOAQUIN,79.3
-99.26,19.36,DF,TSLDF,TRIF. SANTA LUCIA (SANTA FE),61.8
-98.97,19.21,DF,TTLDF,TETELCO,47.3
-99.21,19.51,DF,VDCDF,VASO DE CRISTO (SACM),45.2
-104.07,25.26,DGO,AM2DR,"AGUSTIN MELGAR, (AUTOMATICA)",9.3
-104.48,26.24,DGO,APRDR,AGUA PUERCA,86.7
-104.7,24,DGO,CAGDR,CAMPO AGRICOLA,58.8
-104.8,24.52,DGO,CB2DR,CABORACA (HIDRO),70
-104.8,24.52,DGO,CBRDR,P. CABORACA,70.1
-104.07,26.3,DGO,CEBDR,CEVALLOS,61.2
-104.12,24.44,DGO,CGVDR,CIUDAD GUADALUPE VICTORIA,64
-103.52,25.53,DGO,CLRDR,CIUDAD LERDO,24.1
-103.7,24.87,DGO,CNCDR,CUENCAME,37.8
-104.75,24.5,DGO,CNTDR,CANATLAN,63.4
-104.67,24.03,DGO,DRGDR,DURANGO,56
-103.96,24,DGO,FV2DR,FRANCISCO VILLA (HIDRO),40
-103.96,24,DGO,FVLDR,PRESA FRANCISCO VILLA,40.6
-103.78,25.27,DGO,FZRDR,PRESA FRANCISCO ZARCO,29.8
-105.25,25.5,DGO,GESDR,GENERAL ESCOBEDO,72
-105.96,25.93,DGO,GNCDR,GUANACEVI,86
-104.75,23.96,DGO,GVCDR,PRESA GUADALUPE VICTORIA,87.6
-104.75,23.96,DGO,GVHDR,GUADALUPE VICTORIA,87.5
-105,25.61,DGO,LCRDR,PRESA LAZARO CARDENAS,44.1
-103.28,25.06,DGO,LFLDR,LA FLOR,24.2
-103.31,24.63,DGO,LNRDR,PRESA LOS NARANJOS,5
-105.47,24.19,DGO,LVEDR,"LAS VEGAS, (AUTOMATICA)",61.7
-103.85,25.82,DGO,MPMDR,MAPIMI,22.5
-104.11,25.23,DGO,NZSDR,NAZAS,32
-104.66,24.24,DGO,PA2DR,PE—A DEL AGUILA (HIDRO),84.2
-104.66,24.24,DGO,PAGDR,PRESA PEÒA DEL AGUILA,84.4
-106.37,26.13,DGO,ROSDR,LA ROSILLA,67
-104.9,25.75,DGO,RPADR,RADAR PALMITO,29.5
-105.44,25.23,DGO,SACDR,SALOME ACOSTA,58.6
-104.67,23.87,DGO,SB2DR,SANTIAGO BAYACORA (HIDRO),86.7
-104.9,23.8,DGO,SBBDR,SANTA BARBARA,89.6
-104.67,23.87,DGO,SBYDR,P. SANTIAGO BAYACORA,86.6
-104.05,23.62,DGO,SELDR,PRESA SANTA ELENA,54.3
-105.55,26.42,DGO,SGBDR,SAN GABRIEL,3.1
-106.13,24.44,DGO,SJRDR,SAN JOSE DE REYES,31.5
-105.37,25.95,DGO,SMODR,SANTA MARIA DEL ORO,94.7
-105.42,25.04,DGO,SPPDR,SANTIAGO PAPASQUIARO,51.9
-105.57,26.08,DGO,SRDDR,SARDINAS,67.8
-106,24.5,DGO,TDRDR,EL TULE DEL REAL,117.7
-103.44,26.11,DGO,THODR,TLAHUALILO,31.7
-105.73,25.34,DGO,TLHDR,TEPEHUANES,76.1
-106.98,24.93,DGO,TMZDR,TAMAZULA,121.4
-104.5,26.1,DGO,VHGDR,P. VILLA HIDALGO,97
-105.5,26.44,DGO,VOCDR,VILLA OCAMPO,64
-99.91,16.85,GRO,ACAGR,ACAPULCO,44.2
-99.75,16.76,GRO,ACUGR,"ACAPULCO, (AUTOMATICA)",67.8
-99.5,17.5,GRO,AERGR,AEROPUERTO,43.9
-98.98,17.72,GRO,AHUGR,AHUACUOTZINGO,31.7
-99.1,16.95,GRO,AYUGR,AYUTLA,51.1
-99.2,18.2,GRO,BVSGR,BUENA VISTA,79
-100.66,18.35,GRO,CA2GR,"CD. ALTAMIRANO, (AUTOMATICA)",0
-100.66,18.36,GRO,CALGR,CIUDAD ALTAMIRANO,63
-100.63,18.33,GRO,CDBGR,COYUCA DE BENITEZ,0
-99.5,17.55,GRO,CHIGR,CHILPANCINGO,40
-99.18,17.61,GRO,CHLGR,CHILAPA,1.4
-98.41,16.47,GRO,CNLGR,CUAJINICUILAPA,28.6
-99.66,18.25,GRO,COCGR,COCULA,12.4
-98.97,16.61,GRO,COPGR,COPALA,28.5
-101.05,17.38,GRO,CYQGR,COYUQUILLA,36.1
-99.72,17.32,GRO,ECAGR,EL CARACOL,5.7
-100.68,18.52,GRO,EGLGR,P. EL GALLO,7
-99.55,18.35,GRO,IGLGR,IGUALA,18.4
-101,18.45,GRO,LCLGR,LA CALERA,0
-100.02,16.96,GRO,LDCGR,LAGUNA DE COYUCA,0
-99.24,16.76,GRO,LDGGR,LAS VIGAS,9
-99.48,18.35,GRO,LDTGR,LAGUNA DE TUXPAN,32.4
-99.37,17.47,GRO,MCHGR,MOCHITLAN,30.1
-99.8,16.8,GRO,ODAGR,OBSERVATORIO DE ACAPULCO,70.6
-99.5,17.6,GRO,ODZGR,OBSERVATORIO DE ZUMPANGO,22.5
-98.74,17.78,GRO,OLNGR,OLINALA,71.5
-98.43,16.68,GRO,OMEGR,OMETEPEC,30
-99.2,16.8,GRO,RMEGR,REVOLUCION MEXICANA,0.5
-100.47,17.14,GRO,SJEGR,SAN JERONIMO,44.5
-99.48,16.8,GRO,SNMGR,SAN MARCOS                          *,0
-99.61,18.55,GRO,TAXGR,TAXCO,0
-100.63,17.26,GRO,TECGR,TECPAN DE GALEANA,0
-99.98,17.79,GRO,TLAGR,TLACOTEPEC,51.8
-98.6,17.5,GRO,TLPGR,TLAPA,70.6
-99.4,17.57,GRO,TXTGR,TIXTLA,8
-100.27,18.39,GRO,VGRGR,P. VICENTE GUERRERO,32.5
-99.5,18.42,GRO,VTRGR,PRESA VALERIO TRUJANO,58.7
-98.49,17.9,GRO,XXHGR,XOCHIHUEHUETLAN,69.5
-101.55,17.65,GRO,ZHTGR,ZIHUATANEJO,8
-101.52,20.43,GTO,ABSGJ,ABASOLO,106
-100.72,20.03,GTO,ACNGJ,ACAMBARO,34
-100.68,20.53,GTO,AEGGJ,APASEO EL GRANDE,6.3
-100.58,20.55,GTO,AMCGJ,AMECHE,4.5
-101.37,20.71,GTO,ANSGJ,ARANDAS,12.2
-100.62,20.45,GTO,APSGJ,APASEO EL ALTO,5
-101.63,20.5,GTO,ATBGJ,AGUA TIBIA,32.1
-100.83,20.85,GTO,BEGGJ,LA BEGO—A (HIDROM. IGNACIO ALLENDE),30.9
-101.83,21.05,GTO,BRRGJ,PRESA EL BARRIAL,29.8
-100.9,20.28,GTO,CBOGJ,"EL CUBO, (AUTOMATICA)",10.2
-100.82,20.53,GTO,CLYGJ,CELAYA,6.2
-101.47,21.07,GTO,COMGJ,COMANJILLA,17
-100.36,20.2,GTO,CORGJ,CORONEO,43.2
-101.67,20.62,GTO,CRMGJ,CUERAMARO,24
-100.95,20.48,GTO,CRTGJ,CORTAZAR,10.3
-100.9,20.95,GTO,CSRGJ,CINCO SEÒORES,67.7
-101.67,21.19,GTO,CSSGJ,LOS CASTILLOS(CANALES),28.8
-101.67,21.2,GTO,CSTGJ,LOS CASTILLOS,28.8
-100.93,21.15,GTO,DHGGJ,DOLORES HIDALGO,86
-100.5,20.2,GTO,ECBGJ,EL CUBO,21.5
-101.2,20.9,GTO,ECHGJ,EL CHAPIN,32
-101.37,20.73,GTO,ECNGJ,PRESA EL CONEJO,14.2
-101.67,21.17,GTO,EPLGJ,EL PALOTE,39.2
-101.75,20.43,GTO,GLNGJ,PRESA LA GOLONDRINA,8.5
-101.27,21.01,GTO,GTOGJ,GUANAJUATO,9.6
-100.82,20.83,GTO,IALGJ,IGNACIO ALLENDE,28.9
-101.35,20.68,GTO,IRPGJ,IRAPUATO,14
-100.52,20.13,GTO,JCRGJ,JERECUARO,28.2
-101,20.4,GTO,JDPGJ,JARAL DEL PROGRESO,75.5
-101.83,20.67,GTO,LADGJ,LAS ADJUNTAS,65
-101.13,20.22,GTO,LDYGJ,SANTA MARIA YURIRIA,27.5
-101.67,21.1,GTO,LENGJ,LEON,23.2
-100.87,20.38,GTO,LGVGJ,P. LA GAVIA,12
-101.36,20.28,GTO,LJIGJ,LAS JICAMAS,6
-101,20.3,GTO,LMTGJ,LOMO DE TORO,33.7
-101.11,21.32,GTO,LQMGJ,LA QUEMADA,52.5
-101.95,20.5,GTO,MABGJ,MARIANO ABASOLO,7.3
-100.58,20.56,GTO,MCHGJ,"AMECHE, (AUTOMATICA)",6.4
-101.19,20.13,GTO,MORGJ,MOROLEON,22.3
-101.52,21.63,GTO,OCMGJ,OCAMPO,30
-100.83,20.85,GTO,PALGJ,"PRESA ALLENDE, GTO.  SMN",0.3
-101.06,20.52,GTO,PCSGJ,"PERICOS, (AUTOMATICA)",34.8
-100.9,21.1,GTO,PDLGJ,PUENTE DOLORES                      *,85
-101.13,20.52,GTO,PERGJ,PERICOS,35.1
-100.88,21.1,GTO,PNLGJ,PEÒUELITAS,37.8
-100.5,21.22,GTO,POZGJ,POZOS,60.5
-101.28,20.85,GTO,PRSGJ,PRESA LA PURISIMA,30.4
-101.22,21.48,GTO,SFEGJ,SAN FELIPE,61.8
-101.02,20.4,GTO,SJLGJ,SANTA JULIA,42
-101.2,20.57,GTO,SLMGJ,SALAMANCA,14.6
-100.75,20.58,GTO,SMOGJ,SAN MIGUEL OCTOPAN,16.7
-100.52,21.3,GTO,SLPGJ,SAN LUIS DE LA PAZ,33
-100.82,20.05,GTO,SLSGJ,P. SOLIS,16.1
-100.88,20.22,GTO,SLVGJ,SALVATIERRA,29.2
-101.07,20.3,GTO,SRTGJ,SANTA RITA,53.8
-100.75,20.28,GTO,TARGJ,TARIMORO,3.5
-101.3,20.6,GTO,TEMGJ,TEMASCATIO,16.2
-100.8,20.5,GTO,TGRGJ,TRES GUERRAS,4.5
-101.37,20.74,GTO,TPCGJ,TEPALCATES,10.2
-100.09,21.3,GTO,XICGJ,XICHU,35.5
-101.02,20.27,GTO,YRDGJ,"YURIRIA CANAL ALIMENTADOR, AUTOM.",35.4
-98.94,20.27,HGO,ACTHD,ACTOPAN,20.5
-98.33,21.02,HGO,ATCHD,ATLAPESCO,246
-99.36,20.16,HGO,ENDHD,PRESA ENDO,10
-99.63,20.36,HGO,HCPHD,HUICHAPAN,22
-98.42,21.15,HGO,HJTHD,HUEJUTLA,252
-98.37,21.15,HGO,HUEHD,"HUEJUTLA, HGO. AUTOMATICA",212.1
-99.22,20.48,HGO,IXMHD,IXMIQUILPAN,5.8
-99.18,21.08,HGO,LMTHD,MEZTITLAN,27.5
-99.22,20.24,HGO,MXQHD,MIXQUIAHUALA,10.3
-98.6,21.17,HGO,ORZHD,SAN FELIPE ORIZATLAN,231
-98.74,20.12,HGO,PCHHD,PACHUCA,15.7
-98.75,20.13,HGO,PCOHD,"Pachuca Observatorio, Hgo.",18
-98.34,20.06,HGO,PERHD,PRESA LA ESPERANZA,29.1
-99.33,20.73,HGO,PRGHD,P.ROJO GOMEZ (LA PE—A),6
-99.31,19.97,HGO,PRQHD,PRESA REQUENA,13.5
-99.38,20.44,HGO,PVAHD,PRESA VICENTE AGUIRRE,11
-98.37,20.08,HGO,TLGHD,TULANCINGO,36.9
-99.39,19.84,HGO,TXMHD,TAXHIMAY,37.6
-99.5,20.66,HGO,ZMPHD,PRESA ZIMAPAN,5.7
-98.65,20.65,HGO,ZXTHD,ZACUALTIPAN,236
-102.44,21.6,JAL,AJJJL,AJOJUCAR,24.5
-103.09,20.4,JAL,ATQJL,ATEQUIZA,66.5
-104.06,19.91,JAL,BBAJL,BASILIO BADILLO,25
-103.72,22.4,JAL,BCSJL,BOCAS,68.7
-103.2,20.29,JAL,CHAJL,"Chapala 1, Jal.  SMN*",4.1
-104.57,19.23,JAL,CIHJL,CIHUATLAN,163
-105.07,20.03,JAL,CPEJL,CAJON DE PEÒA,126.7
-101.7,21.5,JAL,CRTJL,PRESA EL CUARENTA,24.4
-105.05,20.58,JAL,CULJL,CUALE,62.6
-103.45,21.07,JAL,CXTJL,CUIXTLA,36.3
-103.33,20.73,JAL,EXPJL,LA EXPERIENCIA,39.3
-102.7,20.63,JAL,GRBJL,"GARABATOS, AUTOMATICA",12.6
-103.37,20.67,JAL,GUAJL,GUADALAJARA CENTRO,33.6
-103.4,20.7,JAL,GUCJL,GUADALAJARA COLOMUS,24.4
-102.71,20.29,JAL,JMYJL,JAMAY,9.7
-103.2,20.3,JAL,LDCJL,LAGO DE CHAPALA,29.6
-102.23,20.48,JAL,PO2JL,"La Polvora, Jal.  GASIR*",5.8
-102.2,20.5,JAL,POLJL,LUGO ZANABRIA-LA POLVORA,7
-105.13,20,JAL,RTOJL,"RIO TOMATLAN, JAL. AUTOMATICA",89.9
-101.85,21.35,JAL,SA1JL,PRESA LA SAUCEDA,30.9
-103.71,20.91,JAL,SRSJL,PRESA SANTA ROSA,72
-102.58,21.45,JAL,TCAJL,TEOCALTICHE,17.5
-104.32,20.04,JAL,TCTJL,TACOTAN,25.6
-103.2,22.17,JAL,TENJL,TENASCO,19.3
-103.04,20.17,JAL,TIZJL,"TIZAP¡N, JAL. AUTOMATICA",29.7
-103.32,20.58,JAL,TLAJL,TLAQUEPAQUE,18.1
-104.12,19.85,JAL,TMLJL,P. TRIGOMIL,82.3
-103.8,20.6,JAL,VEGJL,LA VEGA,52.6
-103.08,20.07,JAL,VTNJL,"EL VOLANTIN, AUTOMATICA",8.6
-99.35,19.38,MEX,2RSMX,DOS RIOS,20.5
-99.22,19.57,MEX,ARBMX,LAS ARBOLEDAS,5.9
-98.91,19.51,MEX,ATEMX,ATENCO,6.2
-99.78,19.75,MEX,ATLMX,ATLACOMULCO,23
-99.87,19.78,MEX,ATPMX,"Atlacomulco Prepa., MÈx.",72.9
-99.7,19.33,MEX,CALMX,CALIXTLAHUACA,24.7
-99.33,19.4,MEX,CDBMX,CAIDA DEL BORRACHO,25.2
-100.12,19.2,MEX,CHIMX,P. CHILESDO,33.4
-98.88,19.48,MEX,CHPMX,CHAPINGO,12.3
-99.24,19.53,MEX,CLYMX,CALACOAYA,13.6
-99.91,20.15,MEX,CNPMX,PRESA LA CONCEPCION,13.7
-99.63,19.29,MEX,COBMX,C.N.A. OBSERVATORIO,23.3
-100.18,19.1,MEX,COLMX,COLORINES,25.5
-99.6,19.9,MEX,DNXMX,P. DANXHO,60
-99.23,19.45,MEX,EMOMX,MOLINITO,47.2
-98.92,19.58,MEX,GRDMX,LA GRANDE AUTOMATICA,3.5
-98.92,19.58,MEX,GRDMX,"LA GRANDE, MEX",3.5
-99.7,20.07,MEX,HPNMX,P. HUAPANGO,29.1
-99.05,19.63,MEX,K27MX,KM. 27+250,30.2
-100.08,19.38,MEX,LBEMX,LOS BERROS,53.9
-99.25,19.63,MEX,LGLMX,LAGO GUADALUPE,0
-99.22,19.48,MEX,MBLMX,MOLINO BLANCO,21.6
-99.71,19.64,MEX,MLLMX,"SANTA MARIA DEL LLANO, AUTOMATICA",73.8
-99.68,19.12,MEX,NEVMX,"NEVADO DE TOLUCA, MEX. AUTOMATICA",63.3
-99.19,19.62,MEX,OBSMX,SAN MARTIN OBISPO,4.9
-99.18,19.58,MEX,PBTMX,PRESA BARRIENTOS,12
-99.03,19.65,MEX,PCCMX,CHICONAUTLA II,13.7
-99.03,19.73,MEX,PCGMX,P. COLGANTE AUTOMATICA (DF),71
-99.18,19.74,MEX,PCGMX,PUENTE COLGANTE,71
-99.01,19.64,MEX,PCTMX,CHICONAUTLA I,1.8
-99.79,19.82,MEX,PFBMX,PRESA FRANCISCO T. FABELA,104
-99.77,19.46,MEX,PIRMX,P.IGNACIO RAMIREZ (ATOTONILCO),42.9
-99.25,19.43,MEX,PLMMX,PALMAS,71.3
-99.27,19.52,MEX,PM2MX,PRESA MADIN AUTOMATICA (DF),0
-99.26,19.53,MEX,PMDMX,PRESA MADIN,13
-99.7,20.1,MEX,PMNMX,P. EL MOLINO,40
-99.7,20,MEX,PNDMX,P. —ADO,68
-99.27,19.52,MEX,PREMX,PRESA MADIN,0.8
-99.21,19.41,MEX,PTLMX,PRESA TOTOLICA,37.5
-98.91,19.53,MEX,SADMX,SAN ANDRES (TEXCOCO),17.8
-99.7,19.47,MEX,SBBMX,SAN BERNABE (J. ANTONIO ALZATE),56
-99.71,19.21,MEX,SJHMX,S.J. HUERTAS,23.5
-98.87,19.19,MEX,SLAMX,SAN LUIS AMECA                      *,7.5
-98.87,19.19,MEX,SLAMX,SAN LUIS AMECA  AUTOMATICA,7.5
-99.7,19.6,MEX,SLBMX,SAN BARTOLO DEL LLANO,14
-99.8,19.33,MEX,TBRMX,TRES BARRANCAS,38.8
-99.94,18.93,MEX,TESMX,TEXCALTITLAN,52.8
-98.9,19.44,MEX,TJCMX,EL TEJOCOTE,69.1
-100.02,19.9,MEX,TM2MX,TEMASCALCINGO,42.8
-99.96,19.66,MEX,TPTMX,TEPETITLAN,81.5
-100.28,19.1,MEX,TROMX,TROJES,47.1
-99.28,19.45,MEX,TTLMX,TOTOLICA (HIDROMETRICA),54
-99.13,19.91,MEX,TTQMX,TAJO DE TEQUIXQUIAC,4
-100.1,19.1,MEX,VBRMX,P. VALLE DE BRAVO,60.8
-99.33,19.38,MEX,VNDMX,EL VENADO,0
-100.05,19.46,MEX,VVCMX,P. VILLA VICTORIA,67.2
-100.94,19.55,MICH,AGOMC,AGOSTITLAN,10
-101.72,20.13,MICH,ANGMC,"ANGAMACUTIRO, MICH. AUTOMATICA",0
-102.27,19.08,MICH,APTMC,APATZINGAN                          *,12
-101.67,19.93,MICH,ARMMC,"ARISTEO MERCADO, AUTOMATICA",40.2
-102.42,20.18,MICH,BIBMC,BARRAJE DE IBARRA,41.7
-101.46,20.32,MICH,CBLMC,CASA BLANCA,13.4
-102.27,19.97,MICH,CHAMC,CHAPARACO,27.2
-100.55,19.7,MICH,CHIMC,CIUDAD HIDALGO,6
-102.75,19.18,MICH,CHLMC,P. CHILATAN,23
-100.9,18.5,MICH,CMNMC,CAIMANERA,4.8
-101.28,19.63,MICH,COIMC,COINTZIO,35.3
-101.86,20.21,MICH,CORMC,CORRALES,27.2
-101.86,20.21,MICH,CRRMC,"CORRALES, AUTOMATICA",28.4
-101.26,19.62,MICH,CT2MC,"COINTZIO, AUTOMATICA",34
-102.59,20.25,MICH,CUUMC,CUMUATO,8.7
-100.42,19.39,MICH,DBOMC,EL BOSQUE,11.1
-102.4,20.3,MICH,DGNMC,DE GONZALO,0
-100.45,19.97,MICH,EGIMC,EL GIGANTE,11.4
-102.7,19.9,MICH,GUAMC,GUARACHA,26.4
-101.87,18.77,MICH,INFMC,PRESA INFIERNILLO,2.4
-102.6,19.9,MICH,JARMC,JARIPO,26.2
-100.41,19.84,MICH,LDFMC,LAGUNA DEL FRESNO,0
-102.87,19.21,MICH,LOLMC,LOS OLIVOS,42.5
-102.75,20.15,MICH,LPAMC,LA PALMA,31.2
-102,20.35,MICH,LPDMC,"La Piedad, Mich.",23.7
-102.9,18.8,MICH,LPNMC,LOS PANCHES,19.1
-102.2,18.8,MICH,LPSMC,LA PASTORIA,12.1
-101.62,19.54,MICH,LPTMC,"LAGO DE PATZCUARO, AUTOMATICA",19.4
-101.2,18.8,MICH,LPZMC,LOS PINZANES,25.6
-101.1,19.7,MICH,MCEMC,MORELIA CENTRO,20.5
-101.46,20.32,MICH,MKZMC,"MARKASSUSSA, AUTOMATICA",15.4
-100.9,19.9,MICH,MLPMC,MALPAIS,13
-101.2,19.7,MICH,MNOMC,MORELIA NORTE,23.2
-102.2,17.9,MICH,MOCMC,MELCHOR OCAMPO,13.7
-102.2,17.93,MICH,MOCMC,MELCHOR OCAMPO L. C.,13.7
-101.18,19.69,MICH,MORMC,MORELIA,30.1
-101.1,19.7,MICH,MORMC,MORELIA CENTRO,30.1
-100.44,19.89,MICH,MRVMC,MARAVATIO,24.9
-102.33,19.96,MICH,ORAMC,ORANDINO,18.1
-101.05,19.49,MICH,PDBMC,PLANTA DE BOMBEO,18.6
-101.6,20.3,MICH,PORMC,PASTOR ORTIZ,2.5
-100.69,19.62,MICH,PUCMC,PUCUATO,11
-100.67,19.62,MICH,SABMC,SABANETA,11
-102.72,20.07,MICH,SAHMC,SAHUAYO,19
-102.46,20.21,MICH,SCRMC,SAN CRISTOBAL,35
-102.64,19.83,MICH,SJUMC,SN. JUANICO,68
-100.23,19.98,MICH,TEPMC,PRESA TEPUXTEPEC,22.8
-100.2,19.48,MICH,TMUMC,TERCER MUNDO,10.8
-102.13,19.97,MICH,UREMC,UREPETIRO,27.8
-102.3,18.12,MICH,VILMC,PRESA LA VILLITA,46.3
-101.45,19.55,MICH,VJIMC,VILLA JIMENEZ,19.1
-102.24,20.34,MICH,YURMC,YURECUARO,10.7
-102.28,20.01,MICH,ZAMMC,ZAMORA,22.2
-101.8,19.81,MICH,ZCAMC,ZACAPU,20.9
-101.93,18.92,MICH,ZICMC,ZICUIRAN,34
-98.83,18.95,MOR,ACHMR,ACHICHIPILCO,126.3
-99.27,18.74,MOR,ALUMR,ALPUYECA                            *,51.4
-99.4,18.6,MOR,AMCMR,AMACUZAC,41
-98.9,18.8,MOR,CUAMR,CUAUTLA,24.3
-99.2,18.9,MOR,CUEMR,CUERNAVACA,65.8
-99.38,18.7,MOR,CUTMR,CUAUTLITA,15.4
-98.97,18.9,MOR,ELPMR,EL PE—ON,63.5
-99.18,18.58,MOR,HIGMR,HIGUERON,76.3
-99.42,18.61,MOR,HUAMR,HUAJINTLAN,89
-99.02,19.03,MOR,HUIMR,HUITZILAC,106.4
-99.03,18.44,MOR,HUTMR,HUAUTLA,66.5
-98.8,18.7,MOR,JNCMR,JONACATEPEC,52.6
-99.2,18.6,MOR,JOJMR,JOJUTLA,39.7
-98.92,18.68,MOR,LCUMR,LA CUERA,41.4
-98.98,18.67,MOR,MYOMR,MOYOTEPEC,93.8
-99.15,18.52,MOR,NEXMR,NEXPA,32.6
-99.26,18.73,MOR,OACMR,OACALCO,44.1
-98.9,18.9,MOR,OAXMR,OAXTEPEC,74.1
-99.22,18.91,MOR,OBSMR,OBSERVATORIO,64.9
-98.76,18.88,MOR,OCTMR,OCUITUCO,62.8
-99.32,18.63,MOR,PIXMR,PUENTE DE IXTLA,64.9
-99.16,18.77,MOR,PROMR,PROGRESO,40.1
-99.4,18.8,MOR,RODMR,PRESA EL RODEO,52.8
-99.19,18.92,MOR,SLDMR,SOLIDARIDAD,43.5
-99.2,18.9,MOR,TEMMR,TEMIXCO,36
-99.1,18.8,MOR,TICMR,TICUMAN,60
-98.75,18.75,MOR,TLOMR,TLACOTEPEC,77.9
-98.79,18.78,MOR,TMCMR,TEMOAC,47
-98.92,18.99,MOR,TOTMR,TOTOLOAPAN,67
-98.84,18.58,MOR,TPLMR,TEPALCINGO,52.9
-99.19,18.52,MOR,XICMR,XICATLACOTLA,54
-99.1,18.9,MOR,YAHMR,YAHUTEPEC,65.9
-98.9,18.9,MOR,YECMR,YECAPIXTLA,26.9
-99.2,18.64,MOR,ZCTMR,ZACATEPEC,17.4
-105.35,22.49,NAY,ACANR,ACAPONETA,85.5
-104.77,21.84,NAY,AGMNR,PRESA AGUAMILPA,95.8
-105.11,21.83,NAY,CAPNR,CAPOMAL,105.2
-104.5,21.94,NAY,CHPNR,CHAPALAGANA,92.7
-104.45,21.43,NAY,CJNNR,EL CAJON,71.8
-104.52,22.25,NAY,JMANR,JESUS MARIA,46.8
-105.02,22.38,NAY,PAJNR,PAJARITOS,149.2
-105.21,22.12,NAY,ROMNR,ROSA MORADA,82.5
-104.8,21.8,NAY,RSRNR,REG. SAN RAFAEL,80
-105.14,21.96,NAY,RUINR,RUIZ,83.8
-104.89,21.49,NAY,TEPNR,TEPIC,71.2
-100,27.23,NL,ANHNL,ANAHUAC,13.5
-99.82,24.1,NL,ARRNL,ARAMBERRI,52.5
-99.91,24.32,NL,ASCNL,LA ASCENSION,32
-99.74,24.99,NL,CABNL,CABEZONES,65.7
-99.58,24.88,NL,CAMNL,CAMACHO,57.2
-99.44,24.98,NL,CARNL,CARMEN D.L.E.,41.9
-99.26,25.72,NL,CCHNL,EL CUCHILLO,41.5
-100.16,25.95,NL,CDFNL,CIENEGA DE FLORES,69.1
-100,25.59,NL,CDRNL,CADEREYTA,58.4
-99.38,24.98,NL,CPRNL,PRESA CERRO PRIETO,43.3
-99.7,24.78,NL,CRUNL,CRUCITAS,76.7
-99.62,26.09,NL,CRVNL,CERRALVO,81.8
-100.17,23.68,NL,DARNL,DOCTOR ARROYO,13
-100.18,25.52,NL,ECSNL,EL CERRITO,105.7
-100.08,24.83,NL,GALNL,GALEANA,16.2
-100.02,25.96,NL,HGRNL,HIGUERAS,44
-100.12,25.44,NL,LBCNL,CORTINA DE LA BOCA,158
-99.52,25.5,NL,LERNL,LAS ENRAMADAS,55
-99.19,26.08,NL,MDRNL,MADERO,31.4
-99.83,25.18,NL,MTMNL,MONTEMORELOS,117.9
-100.27,25.68,NL,MTRNL,MONTERREY,108.7
-100.3,25.73,NL,OBSNL,OBSERVATORIO,108.7
-99.21,24.99,NL,PAMNL,LA PAMONA                           *,37
-99.32,25.73,NL,PCUNL,"PRESA EL CUCHILLO, NL. AUTOMATICA",33.8
-100.38,27.45,NL,PSANL,PRESA SALINILLAS,19.2
-100.55,25.03,NL,SRANL,SAN RAFAEL,27
-99.78,23.98,NL,ZRGNL,ZARAGOZA,32
-96.1,17.02,OAX,AYUOX,AYUTLA,116.5
-96.72,17.07,OAX,BAEOX,BASE AEREA,5.2
-95.5,16.8,OAX,BOQOX,BOQUILLA 1,5.4
-96.27,18.02,OAX,CDOOX,CERRO DE ORO (MADRID),348.3
-94.82,16.58,OAX,CHIOX,CHICAPA,7.7
-95.06,16.5,OAX,CHVOX,SANTIAGO CHIVELA,11.4
-96.95,17.8,OAX,CUIOX,CUICATLAN,4.2
-95.42,16.44,OAX,EMAOX,EL MARQUEZ (RIO TEHUANTEPEC),2.5
-97.78,17.8,OAX,HLOOX,HUAJ. DE LEON OBSERV,32.8
-95.1,16.58,OAX,IXTOX,IXTEPEC,7.7
-96.2,17.87,OAX,JACOX,JACATEPEC,439.2
-96.2,17.87,OAX,JDMOX,JALAPA DEL MARQUES,1
-95.03,16.43,OAX,JUCOX,JUCHITAN,0
-95.2,16.6,OAX,KM1OX,KM. 33+190,0
-95.72,16.42,OAX,KM2OX,KM. 51+740,0
-95.3,16.4,OAX,LPIOX,LAS PILAS,0
-95.49,17.46,OAX,MAROX,MARIA LOMBARDO,230
-96.73,17.07,OAX,OACOX,OAXACA CENTRO,15.8
-96.7,17,OAX,OAOOX,OAXACA OBS. AEROPUERTO,1.1
-94.4,16.5,OAX,OSTOX,OSTUTA,3
-96.08,18.17,OAX,PAPOX,PAPALOAPAN,67.9
-96.5,15.7,OAX,PTAOX,PUERTO ANGEL,0.3
-96.5,15.67,OAX,PUAOX,"PUERTO ANGEL, OAX. AUTOMATICA",0
-95.92,17.73,OAX,RMLOX,RIO MANSO LALANA,348
-97.73,16.1,OAX,RVEOX,RÌO VERDE,1.2
-95.2,16.18,OAX,SCROX,SALINA CRUZ,0
-96.53,17.88,OAX,SFUOX,SAN FELIPE USILA,541
-96.45,17.12,OAX,SMAOX,SAN ANTONIO CUAJIMOLOYAS,51
-96.55,18.05,OAX,STDOX,SANTO DOMINGO,213.9
-95.2,16.3,OAX,TEHOX,TEHUANTEPEC,0
-96.42,18.23,OAX,TEMOX,PRESIDENTE ALEMAN (TEMAZCAL),154.6
-95.6,16.42,OAX,TEQOX,TEQUISISTLAN,1.4
-96.13,18.08,OAX,TUXOX,TUXTEPEC,171.8
-94.83,16.45,OAX,UHGOX,UNION HIDALGO,0
-96.3,17.78,OAX,VANOX,VALLE NACIONAL,472.3
-97.83,17.73,OAX,YOSOX,P. YOSOCUTA,16
-94.22,16.4,OAX,ZANOX,ZANATEPEC,2.3
-97.42,19.45,PUE,ACHPB,ALCHICHILCA,18.6
-97.97,20.18,PUE,ACJPB,ACAJETE,23.9
-98.06,18.28,PUE,ADOPB,ACTALAN DE OSORIO,24.7
-98.14,18.94,PUE,AFRPB,AFRICAM,34
-98.15,20.03,PUE,AHUPB,AHUAZOTEPEC,207.3
-97.85,20.41,PUE,APAPB,APAPANTILLA,268.5
-98.41,18.91,PUE,ATXPB,ATLIXCO,50.7
-98.11,18.91,PUE,BDDPB,BALCON DEL DIABLO,49.9
-97.43,18.98,PUE,CDSPB,CIUDAD SERDAN,28
-97.95,18.97,PUE,CEMPB,CEMEX,45
-98.58,18.52,PUE,CHIPB,CHIETLA,13.2
-98.32,19.07,PUE,CHLPB,CHOLULA,30.3
-98.49,18.11,PUE,CHSPB,CHILA DE SAL,57.6
-98.2,19.04,PUE,CNAPB,C.N.A.,86.7
-98.05,18.83,PUE,CNGPB,CHIGNAHUAPAN,65.9
-98.16,18.61,PUE,COAPB,COATZINGO,43.1
-98.06,19.09,PUE,CPLPB,CAPULAC,55.9
-97.53,20.05,PUE,CTZPB,CUETZALAN,561
-98.28,18.97,PUE,ECHPB,ECHEVERRIA,28.1
-98.46,19.1,PUE,HJTPB,HUEJOTZINGO,30
-98.54,18.77,PUE,HQCPB,HUAQUECHULA,16
-98.05,20.18,PUE,HUAPB,HUAUCHINANGO,246.2
-97.82,19.62,PUE,IXTPB,"Ixtacamaxtitl·n, Pue.",34.4
-98.47,18.58,PUE,IZMPB,IZUCAR DE MATAMOROS,25
-97.69,19.49,PUE,LIBPB,LIBRES,29
-98.1,18.6,PUE,MAYPB,MAYORAZGO 21 PTE.,59.1
-98,20.23,PUE,NNEPB,NUEVO NECAXA,147.8
-97.55,19.7,PUE,OYAPB,OYAMELES,165
-97.25,18.92,PUE,PCRPB,PASO CARRETAS,26
-98.36,18.36,PUE,PIXPB,PIAXTLA,99
-97.85,20.27,PUE,PTLPB,PATLA,315.5
-98.17,19.05,PUE,PUOPB,PUEBLA OBSERVATORIO,25.8
-97.13,19.25,PUE,QUIPB,QUIMIXTLAN,48.7
-97.4,20.1,PUE,RNAPB,RANCHO NUEVO (AYOTOXCO),658.5
-98.22,19.11,PUE,SCRPB,SN CRISTOBAL CALERAS,28.8
-97.91,18.74,PUE,SMCPB,SAN MIGUEL CANOA,42
-97.45,19.96,PUE,SOLPB,P. LA SOLEDAD,519.5
-98.58,19.33,PUE,SRTPB,SANTA RITA TLAHUAPAN,34.5
-98.58,19.33,PUE,SRTPB,STA RITA TLAHUAPAN,34.5
-97.79,20,PUE,TDRPB,TEPANGO DE RODRIGUEZ,265
-97.72,18.88,PUE,TECPB,TECAMACHALCO,31.8
-97.4,18.4,PUE,TEHPB,TEHUACAN,33.3
-97.81,19.83,PUE,TEOPB,TETELA DE OCAMPO,187.9
-97.79,20,PUE,TEPPB,TEPANGO DE RODRIGUEZ,135.4
-97.35,19.82,PUE,TEZPB,TEZIUTLAN,355.1
-96.85,18.41,PUE,TLPPB,TLACOTEPEC DE DIAZ,205.5
-97.45,19.48,PUE,TPYPB,TEPEYAHUALCO,17
-97.72,18.87,PUE,UTTPB,"Univ. TecnolÛgica Tecamachalco, Pue.  SMN*",19.5
-97.68,20.51,PUE,VENPB,VENUSTIANO CARRANZA,167.3
-97.95,20.28,PUE,XDJPB,XICOTEPEC DE JUAREZ,394.6
-97.58,19.87,PUE,ZCPPB,ZACAPOAXTLA,356.1
-97.02,18.34,PUE,ZOQPB,ZOQUITLAN,389
-97.83,20.18,PUE,ZRGPB,ZARAGOZA,190
-100.49,20.59,QRO,ADJQT,"LAS ADJUNTAS, QRO., AUTOMATICA",30.8
-100.27,20.7,QRO,AMZQT,"AMAZCALA, QRO. AUTOMATICA",4.8
-100.35,20.5,QRO,BATQT,EL BATAN,38.4
-100.44,20.6,QRO,CARQT,CARRILLO,38.1
-100.07,20.42,QRO,CNSQT,CONSTITUCION DE 1917,42.4
-100.45,20.54,QRO,EPUQT,EL PUEBLITO,29
-100.37,20.57,QRO,GHQQT,GERENCIA HIDALGO QRO.,16.4
-100.28,20.39,QRO,HUIQT,EHCA HUIMILPAN,41.8
-99.97,20.21,QRO,IDFQT,SAN ILDEFONSO,62.5
-99.48,21.23,QRO,JLPQT,JALPAN,111.9
-100.45,20.7,QRO,JRQQT,JURIQUILLA,14
-100.23,20.62,QRO,MARQT,MARQUEZ,8.5
-100.37,20.57,QRO,OBSQT,OBSERVATORIO,21.2
-99.82,21.06,QRO,PMLQT,PE—AMILLER,32.7
-100,20.36,QRO,SJSQT,SAN JOSE,67.6
-86.82,21.16,QROO,CANQR,CANCUN,476.6
-88.33,18.5,QROO,CHEQR,"CHETUMAL, QROO. AUTOMATICA",194.7
-88.33,18.5,QROO,CHOQR,CHETUMAL,199.9
-86.78,21.07,QROO,CNCQR,"CANCUN, QROO. AUTOMATICA",378.8
-86.91,20.48,QROO,CO2QR,COZUMEL. AUTOMATICA,487.2
-86.95,20.51,QROO,COZQR,COZUMEL,396
-88.04,19.57,QROO,FCRQR,FELIPE CARRILLO PUERTO,201.7
-87.08,20.62,QROO,PDCQR,PLAYA DEL CARMEN,485.8
-106.65,24.05,SIN,ACTSI,ACATITAN,98
-109.18,25.92,SIN,AHMSI,AHOME,2.5
-107.38,25.09,SIN,AL2SI,EL VAREJONAL (HIDRO) P ADOLFO LOPEZ MATEOS,93
-107.38,25.09,SIN,ALMSI,PRESA ADOLFO LOPEZ MATEOS,93
-108.7,25.7,SIN,ARCSI,ADOLFO RUIZ CORTINEZ,12
-107.47,25.03,SIN,AWSSI,ANDREW WEISS,89.5
-107.54,25.33,SIN,BDRSI,BADIRAGUATO,68
-108.33,26.74,SIN,CHXSI,"CHOIX, ESTACION",78.2
-107.4,24.82,SIN,CLCSI,CULIACAN,96.6
-109.33,26.1,SIN,CRRSI,EL CARRIZO,12
-108.08,25.47,SIN,EBLSI,PRESA EUSTAQUIO BUELNA,78
-108.62,26.43,SIN,EFTSI,EL FUERTE,29.1
-108.32,26.08,SIN,GBESI,PRESA GUILLERMO BLAKE (EL SABINAL),37.6
-107.91,25.85,SIN,GD2SI,BACURATO (HIDRO) P GUSTAVO DIAZ ORDAZ,106
-107.91,25.86,SIN,GDOSI,PRESA GUSTAVO DIAZ ORDAZ,106
-108.09,25.47,SIN,GMCSI,GUAMUCHIL,78
-108.47,25.72,SIN,GSVSI,GUASAVE,64.6
-107.23,25.34,SIN,GTNSI,GUATENIPA,97
-109.33,25.98,SIN,HDZSI,HIGUERA DE ZARAGOZA,5.2
-106.6,23.96,SIN,IXPSI,IXPALINO,92.6
-107.04,24.71,SIN,JGRSI,J. GRO. ALCOSER (VINORAMAS),92
-106.81,24.57,SIN,JLPSI,PRESA JOSE LOPEZ PORTILLO,122.8
-108.01,25.9,SIN,JNASI,JAINA,61.5
-108.72,26.41,SIN,JORSI,PRESA JOSEFA ORTIZ DE DOMINGUEZ,39
-106.9,23.92,SIN,LCRSI,LA CRUZ,73
-108.35,26.9,SIN,LD2SI,HUITES (HIDRO),94.4
-108.35,26.9,SIN,LDCSI,HUITES,94.4
-109,25.8,SIN,MCHSI,LOS MOCHIS,3.5
-106.4,23.23,SIN,MZTSI,MAZATLAN,28.9
-107.44,24.63,SIN,OBSSI,OBSERVATORIO CULIACAN,97.8
-108.58,26.51,SIN,PMHSI,PRESA MIGUEL HIDALGO,47.8
-106.47,23.56,SIN,QLTSI,QUELITE,125.6
-107.76,25.12,SIN,RAVSI,ESTACION RANCHO VIEJO,60
-105.85,22.98,SIN,RSRSI,ROSARIO,92
-106.95,24.48,SIN,SCRSI,SANTA CRUZ,89.3
-108.78,26.07,SIN,SFRSI,SUFRAGIO,19
-107.5,25.3,SIN,SJNSI,SAN JUAN,107.2
-107.1,24.8,SIN,SLRSI,SAN LORENZO,195
-106.7,24.12,SIN,SLTSI,EL SALTO (AURELIO BENASSINI),142
-107.16,24.81,SIN,SN2SI,SANALONA (HIDRO),142.1
-107.16,24.81,SIN,SNLSI,PRESA SANALONA,142.1
-106.25,23.35,SIN,SQRSI,SIQUEROS,72.5
-105.85,25.09,SIN,TORSI,TORTUGA,1
-107.06,24.75,SIN,VINSI,VINORAMAS,92
-107.4,25.13,SIN,ZOPSI,ZOPILOTE                            *,51
-98.56,21.97,SLP,AJTSL,LAS ADJUNTAS,114.5
-98.96,21.75,SLP,BLMSL,BALLESMI,233.8
-99.02,21.98,SLP,CDVSL,CD. VALLES,63
-100.28,22.43,SLP,CTSSL,CERRITOS,40.5
-99.24,21.91,SLP,GANSL,GALLINAS,122.4
-100.82,21.88,SLP,IVGSL,VALENTIN GAMA,53.4
-100.67,23.65,SLP,MA2SL,MATEHUALA. AUTOMATICA,4.8
-100.64,23.66,SLP,MATSL,MATEHUALA,15.3
-98.8,21.33,SLP,MTPSL,MATLAPA,231.6
-99.32,22.52,SLP,NRJSL,NARANJOS,153.8
-100.76,21.85,SLP,OCTSL,OJO CALIENTE,52
-99.83,21.63,SLP,PMYSL,MONTOYA,92.9
-98.94,21.85,SLP,PUJSL,EL PUJAL,201.7
-98.89,21.43,SLP,RQTSL,REQUETEMU,214.2
-100,21.93,SLP,RVDSL,RIO VERDE,39.6
-101.68,22.63,SLP,SDHSL,SALINAS DE HIDALGO,40.5
-101,22.2,SLP,SGRSL,SOLEDAD GRACIANO,42.2
-101.02,22.15,SLP,SLPSL,SAN LUIS POTOSI,37.2
-99.06,22.02,SLP,STRSL,SANTA ROSA,114.9
-98.62,21.69,SLP,SVTSL,SAN VICENTE,114.6
-98.86,21.25,SLP,TBLSL,TIERRA BLANCA,323.6
-100.58,21.62,SLP,TIESL,TIERRA NUEVA,13.1
-98.77,22,SLP,TMISL,TAMUIN,109.4
-98.77,22,SLP,TMISL,TAMUIN OBS,109.4
-98.82,21.55,SLP,TMOSL,TAMPAMOLON,110.9
-98.76,21.24,SLP,TMTSL,TEMAMATLA,239.6
-101.93,22.85,SLP,VRASL,V. RAMOS                            *,0
-100.93,21.8,SLP,VRYSL,VILLA DE REYES,53.4
-110.22,30,SON,ACNSO,ACONCHI,17.5
-111.73,30.72,SON,ALTSO,ALTAR,41.5
-109.94,27.48,SON,AOBSO,PRESA ALVARO OBREGON,0
-109.54,31.33,SON,APTSO,AGUA PRIETA,14
-109.1,27.23,SON,ARCSO,PRESA ADOLFO RUIZ CORTINEZ,6.4
-109.09,30.07,SON,ARISO,ARIBABI,73.1
-110.92,29.08,SON,ARLSO,PRESA ABELARDO RODRIGUEZ LUJAN,4
-110.17,30.34,SON,ARZSO,ARIZPE,15.6
-110.24,30.6,SON,BCNSO,BACANUCHI,8.2
-108.93,30.36,SON,BCRSO,BACERAC,46
-110.22,30,SON,BNMSO,BANAMICHI,15.5
-109.63,27.42,SON,CCRSO,COCORAQUE,4.5
-111.52,30.88,SON,CHTSO,PRESA CUAUHTEMOC,40.5
-110.74,29.47,SON,CJNSO,EL CAJON,4.3
-109.94,27.5,SON,COBSO,CIUDAD OBREGON,0
-109.64,27.24,SON,CRCSO,CARCAMO,0
-108.76,26.6,SON,CZNSO,CAZANATE,43.7
-109.23,29.2,SON,ECBSO,EL CUBIL,17.6
-110.8,27.95,SON,EPLSO,EMPALME,2
-110.85,27.95,SON,GYMSO,GUAYMAS,0
-110.92,29.07,SON,HM2SO,HERMOSILLO OBSERVATORIO,4.4
-110.93,29.07,SON,HMNSO,HERMOSILLO,1.2
-108.96,30.21,SON,HSHSO,HUACHINERA,68
-110.89,30.76,SON,IMRSO,IMURIS,18.4
-110.39,28.43,SON,IRASO,P. IGNACIO R. A LA TORRE,0.8
-109.39,30.44,SON,LCDSO,PRESA LA ANGOSTURA,36.8
-110.14,29,SON,MZTSO,MAZATAN,1.5
-109.54,27.08,SON,NCHSO,NACHUQUIS,0
-109.69,30.37,SON,NCZSO,NACOZARI,24.8
-110.95,31.32,SON,NGLSO,NOGALES,39.6
-109.44,27.07,SON,NVJSO,NAVOJOA,29
-112.85,31.87,SON,NYNSO,SONOYTA,70.3
-109.93,27.37,SON,OBOSO,OBSERVATORIO CIUDAD OBREGON,6.8
-110.71,29.23,SON,ORGSO,EL OREGANO,11.2
-109.08,29.43,SON,PDNSO,PASO NACORI,14.8
-109.63,28.98,SON,PECSO,PRESA PLUTARCO ELIAS CALLES,8.8
-110.43,29.4,SON,PMOSO,EL MOLINITO,5.2
-113.58,31.3,SON,PT2SO,PUERTO PE—ASCO,37.5
-110.31,28.34,SON,PTASO,PUNTA DE AGUA,0.2
-112.12,30.7,SON,PTQSO,PITIQUITO,20
-111.02,30.05,SON,QRBSO,QUEROBABI,27.2
-110.57,29.71,SON,RAYSO,RAYON,20
-108.88,27.41,SON,SBNSO,SAN BERNARDO,24.6
-110.35,28.71,SON,SJPSO,SAN JOSE DE PIMAS                   *,7
-111.45,30.39,SON,SRSSO,SANTA ROSA II,32
-109.45,26.92,SON,TCRSO,3 CARLOS,0
-109.5,29.53,SON,TPCSO,TEPACHE,11
-109.21,27.66,SON,TSOSO,TESOCOMA,25
-110.29,27.64,SON,VCMSO,VICAM,1
-108.92,28.37,SON,YC2SO,"YECORA, SON. AUTOMATICA",11.3
-108.93,28.37,SON,YCRSO,YECORA,15.5
-91.48,17.43,TAB,BDCTB,BOCA DEL CERRO,569.8
-93.41,17.81,TAB,CARTB,CARDENAS,521
-92.92,17.98,TAB,EMUTB,VILLAHERMOSA,282
-92.81,18.04,TAB,EPOTB,EL PORVENIR,360.1
-91.75,17.75,TAB,EZATB,E. ZAPATA,60.8
-92.92,17.97,TAB,GABTB,GAVIOTAS,239.5
-93,17.98,TAB,GONTB,GONZALEZ,329.5
-92.6,17.77,TAB,MACTB,MACUSPANA,485
-92.93,17.98,TAB,OBSTB,OBSERVATORIO,282
-92.88,17.85,TAB,PNVTB,PUEBLO NUEVO,304.9
-92.94,17.57,TAB,PUYTB,PUYACATENGO,863.2
-93.29,17.98,TAB,SAMTB,SAMARIA,548.3
-92.92,17.5,TAB,SJOTB,SAN JOAQUIN,693.5
-91.16,17.79,TAB,SPTTB,SAN PEDRO,243.9
-92.82,17.47,TAB,TAPTB,TAPIJULAPA,656.8
-92.97,17.57,TAB,TEATB,TEAPA,829.3
-98.39,24.07,TAMPS,ABSTP,ABASOLO,38
-99.1,22.95,TAMPS,AHLTP,AHUALULCO,111.8
-97.93,22.39,TAMPS,BALTP,BOMBAS ALTAMIRA,40.4
-99.12,24.08,TAMPS,BR1TP,EL BARRETAL I,164.5
-99.22,24.1,TAMPS,BRRTP,EL BARRETAL,174.9
-98.6,26.24,TAMPS,CDOTP,S-J-2-18 CIUDAD DIAZ ORDAZ,91.4
-98.8,26.25,TAMPS,CMGTP,S-J-2-11 CAMARGO,30.4
-99.25,26.92,TAMPS,CMRTP,MIER,80.5
-97.82,25.64,TAMPS,CONTP,CONTROL,107
-98.94,23.94,TAMPS,CORTP,CORONA,41.6
-99.17,23.72,TAMPS,CVCTP,CIUDAD VICTORIA OBSERVATORIO,79.7
-99.19,23.73,TAMPS,CVTTP,CD. VICTORIA (GERENCIA),56
-98.69,22.62,TAMPS,ERCTP,PRESA ESTUDIANTE RAMIRO CABALLERO,62.2
-98.16,24.84,TAMPS,FD2TP,"SAN FERNANDO, TAMPS. AUTOMATICA",94
-98.16,24.84,TAMPS,FDOTP,SAN FERNANDO,106.9
-99.12,22.83,TAMPS,LSRTP,LA SERVILLETA,105.6
-99.55,24.57,TAMPS,MAGTP,MAGUEYES,102.9
-97.52,25.83,TAMPS,MATTP,MATAMOROS,166
-97.84,22.28,TAMPS,MDRTP,MADERO,61
-99.04,26.37,TAMPS,MGATP,S-J-1-2 MIGUEL ALEMAN,116.9
-98.72,22.79,TAMPS,MGSTP,MAGISCATZIN,33.8
-99.43,23.92,TAMPS,MHGTP,MIGUEL HIDALGO,54.1
-98.92,26.23,TAMPS,MRGTP,PRESA MARTE R. GOMEZ,45
-98.9,24.05,TAMPS,PADTP,PADILLA,77.1
-97.8,25.8,TAMPS,PANTP,PUEBLO ANAHUAC,107.7
-98.75,23.73,TAMPS,PDMTP,PASO DE MOLINA,24
-98.9,24.14,TAMPS,PILTP,PILON,61
-99.55,24.23,TAMPS,PJMTP,PRESA PEDRO J. MENDEZ,38.7
-99.58,24.18,TAMPS,PVLTP,PUERTO DE VALLES,55.9
-99,22.85,TAMPS,RFRTP,RIO FRIO,80.1
-98,25.97,TAMPS,RIBTP,RIO BRAVO,32
-97.99,23.26,TAMPS,RSPTP,REPUBLICA ESPAÒOLA,49.6
-98.88,26.17,TAMPS,RYNTP,S-J-2-9 REYNOSA,114.2
-99.09,23.02,TAMPS,SBNTP,SABINAS,126.2
-98.87,22.78,TAMPS,SDATP,PRESA SACA DE AGUA,32.9
-98.79,23.08,TAMPS,SGBTP,SAN GABRIEL,20.7
-98.21,23.77,TAMPS,SLMTP,SOTO LA MARINA,175.1
-98.8,22.95,TAMPS,SLZTP,PRESA SAN LORENZO,19.8
-97.88,22.24,TAMPS,TMPTP,TAMPICO,66.2
-98.42,22.42,TAMPS,TMSTP,TAMESI,25.6
-97.8,25.91,TAMPS,VCATP,VILLA CARDENAS,71.6
-98.55,23.97,TAMPS,VGRTP,PRESA VICENTE GUERRERO,35.5
-97.8,25.7,TAMPS,VHMTP,VALLE HERMOSO,77
-98.56,19.59,TLAX,CPPTL,CALPULALPAN,62.2
-97.74,19.3,TLAX,CUATL,CUAPIAXTLA,63.4
-97.65,19.32,TLAX,ECTTL,EL CARMEN TEQUEXQUITLA,49.5
-97.91,19.32,TLAX,HMTTL,HUAMANTLA,21.6
-98.2,19.4,TLAX,OBSTL,OBSERVATORIO,14.1
-98.2,19.55,TLAX,SJATL,SAN JOSE ATLANGA,80.5
-98.18,19.12,TLAX,SPMTL,SAN PABLO DEL MONTE,55
-98.24,19.22,TLAX,ZACTL,ZACATELCO,24.5
-97.92,19.2,TLAX,ZITTL,ZITLALTEPEC                         *,31.7
-96.84,19.7,VER,ACAVC,ACATLAN,243
-96.59,19.5,VER,ACTVC,ACTOPAN,20.8
-94.14,18.14,VER,AGDVC,AGUA DULCE (CENTRO),941
-97.68,20.93,VER,ALAVC,ALAMO TEMAPACHE,108
-97.23,19.76,VER,ALTVC,ALTOTONGA,472.6
-95.44,18.58,VER,ARCVC,ANGEL R. CABADA,516
-96.94,19.59,VER,BANVC,BANDERILLA,152.5
-96.93,19.48,VER,BRIVC,BRIONES,142.2
-95.74,18.37,VER,CACVC,CARLOS CARRILLO,107.8
-95.8,18.3,VER,CCLVC,CHACALTIANGUIS,118.8
-96.7,19.43,VER,CEGVC,"Cerro Gordo, Ver.",32.2
-98.15,21.74,VER,CHYVC,PASO DE PIEDRAS (CHICAYAN),80.2
-97.55,21.07,VER,CLHVC,CHALAHUITE,130.7
-96.94,19.45,VER,COAVC,COATEPEC,130.5
-94.4,18.1,VER,COTVC,COATZACOALCOS,659.1
-96.37,19.36,VER,CRDVC,CARDEL,23.5
-96.65,19.32,VER,CRRVC,CARRIZAL,27.5
-95.3,18.14,VER,CTTVC,COATOTOLAPAN,251.4
-96.36,19.41,VER,ENRVC,EL NARANJILLO,4.5
-98.33,20.25,VER,ESPVC,EL ESPINAL,256.6
-96.16,19.07,VER,ETEVC,EL TEJAR,37.8
-95.56,18.27,VER,GARVC,GARRO,280.6
-98.44,21.78,VER,HGOVC,EL HIGO,159.6
-98.27,21.16,VER,HLSVC,LOS HULES,184.4
-96.95,19.18,VER,HTSVC,HUATUSCO,55.3
-98.48,20.53,VER,HUYVC,HUAYACOCOTLA,151
-96.55,19.4,VER,IDOVC,IDOLOS,12.5
-96.88,19.6,VER,INCVC,INGENIO CONCEPCION,95
-94.67,17.95,VER,JALVC,JALTIPAN,486.2
-95.03,17.43,VER,JCRVC,JESUS CARRANZA,242.2
-94.09,17.87,VER,JDCVC,SAN JOSE DEL CARMEN,905.5
-97.02,19.6,VER,JOYVC,LA JOYA,100.3
-95.35,18.25,VER,LAUVC,LAUCHAPAN,332.5
-94.3,18.1,VER,LCAVC,LA CANGREJERA,1042.3
-95.45,18.23,VER,LCEVC,LA CEIBILLA,353.9
-97.23,18.92,VER,LGRVC,LOMA GRANDE,25
-96.98,20.05,VER,LIBVC,LIBERTAD,515.1
-96.39,19.26,VER,LOFVC,LOMA FINA,30
-94.92,17.42,VER,LPEVC,LAS PERLAS,299.4
-97.1,19.65,VER,LVRVC,LAS VIGAS DE RAMIREZ,185.1
-97.05,20.07,VER,MDTVC,MARTINEZ DE LA TORRE,419.6
-96.34,19.09,VER,MFAVC,MANLIO F. ALTAMIRANO,16
-94.52,17.97,VER,MINVC,MINATITLAN,800
-94.94,18.13,VER,MNZVC,MINZAPAN,329.2
-96.83,19.93,VER,MZNVC,MISANTLA,678.2
-96.87,19.65,VER,NAOVC,NAOLINCO,159.5
-95.52,18.63,VER,NLTVC,"NARANJAL, LERDO DE TEJADA",291.1
-98.51,21.84,VER,OLVVC,EL OLIVO,157.2
-97.1,18.85,VER,ORZVC,ORIZABA,185
-94.33,18.11,VER,PCNVC,PB1-LA CANGREJERA,857.8
-96.14,19.04,VER,PDTVC,PASO DEL TORO,25.9
-97.81,21.18,VER,PEMVC,PRESA EL MORALILLO,81.1
-97.25,19.58,VER,PERVC,PEROTE,97.4
-98.17,22.05,VER,PNCVC,PANUCO,90.4
-97.32,20.45,VER,PPNVC,PAPANTLA,167.6
-97.48,20.54,VER,PRCVC,POZA RICA,108.1
-98.34,21.29,VER,PSNVC,PLATON SANCHEZ,224.9
-95.82,17.83,VER,PVCVC,PLAYA VICENTE,360.4
-95.63,18.72,VER,RALVC,RADAR ALVARADO,273.7
-96.71,20.16,VER,RAUVC,EL RAUDAL,467.8
-96.55,19.35,VER,RNCVC,RINCONADA,31
-97.78,20.88,VER,SBTVC,SOMBRERETE,148
-95.18,18.45,VER,SIHVC,SIHUAPAN,539
-95.13,17.88,VER,SJEVC,SAN JUAN EVANGELISTA,135.9
-95.03,18.52,VER,SONVC,SONTECOMAPAN,752
-96.49,19.34,VER,TAMVC,TAMARINDO,48
-96.35,18.45,VER,TBLVC,TIERRA BLANCA,150
-96.97,19.38,VER,TCOVC,TEOCELO,56
-94.16,17.57,VER,TMOVC,TIERRA MORADA,807.5
-98.38,21.52,VER,TMPVC,TEMPOAL,141.6
-96.92,19.81,VER,TNCVC,TENOCHTITLAN,553.7
-98.14,21.04,VER,TRRVC,TERRERILLOS,79.8
-97.4,20.96,VER,TXPVC,TUXPAN,227.6
-95.42,18.47,VER,TZAVC,TRES ZAPOTES,451.6
-95.7,18.08,VER,VAZVC,VILLA AZUETA,205
-96.11,19.15,VER,VERVC,VERACRUZ,78.3
-96.58,19.02,VER,VTEVC,VILLA TEJEDA,32.5
-96.92,19.53,VER,XCEVC,XALAPA CENTRO,117.7
-96.85,19.55,VER,XCFVC,XALAPA CFE,129.5
-96.92,19.53,VER,XOBVC,XALAPA OBSERVATORIO,99.9
-89.35,19.83,YUC,BECYC,BECANCHEN,76
-89.58,20.5,YUC,CANYC,CANTAMAYEN,141.4
-88.47,20.39,YUC,CHIYC,CHANCHICHIMILA                      *,81.5
-89.68,20.65,YUC,CHOYC,CHOCHOLA,88.4
-89.98,20.98,YUC,CICYC,CENTRO DE INV.CIENTIFICA,87.8
-87.78,21.52,YUC,CYOYC,EL CUYO,139
-89.58,20.98,YUC,EZAYC,EMILIANO ZAPATA,56.1
-89.63,20.98,YUC,FAEYC,FUERZA AEREA,95
-89.66,20.98,YUC,GARYC,GERENCIA REGIONAL,54.5
-89.6,21,YUC,MEOYC,MERIDA OBSERVATORIO,59.8
-89.28,21.08,YUC,MTOYC,MOTUL,62.5
-89.71,20.49,YUC,MUNYC,MUNA,138.8
-89.39,20.29,YUC,OXKYC,OXKUTZCAB,211.3
-88.95,19.96,YUC,PETYC,PETO,199
-89.6,21.3,YUC,PROYC,PROGRESO,71.1
-88.15,21.59,YUC,RLAYC,R.LAGARTO,89.9
-89.54,20.4,YUC,TICYC,TICUL,107
-88.17,21.16,YUC,TIZYC,TIZIMIN,141.8
-88.2,20.7,YUC,VALYC,VALLADOLID,237.7
-103.23,22.33,ZAC,ACHZC,ACHIMEC,38.8
-103.46,21.81,ZAC,ATGZC,ATOLINGA,20.2
-102.97,22.82,ZAC,BTEZC,BOCA DEL TESORERO,54.3
-102.89,22,ZAC,CHIZC,EL CHIQUE,47.7
-101.39,24.62,ZAC,CORZC,CONCEPCION DEL ORO,36.5
-102.35,22.45,ZAC,CUAZC,CD. CUAUHT…MOC,39.5
-103.09,23.69,ZAC,ELCZC,EL CAZADERO,44.3
-102.04,22.67,ZAC,ELSZC,EL SALADILLO,24
-103.34,21.65,ZAC,EXCZC,P.MIGUEL ALEMAN (EXCAME),43.6
-102.89,23.17,ZAC,FREZC,FRESNILLO,20
-103.09,21.93,ZAC,GJAZC,JOAQUIN AMARO,74
-102.51,22.75,ZAC,GPEZC,GUADALUPE,20.1
-102.46,22.49,ZAC,GRCZC,GENARO CODINA,42.5
-103.4,24.28,ZAC,JALZC,JUAN ALDAMA,17.2
-103.11,21.4,ZAC,JCHZC,JUCHIPILA,24.4
-103,22.64,ZAC,JERZC,JEREZ,34.6
-102.57,22.78,ZAC,LBUZC,LA BUFA,11.3
-103.6,22.69,ZAC,LFLZC,LA FLORIDA,80
-102.66,23,ZAC,LLBZC,LLANO BLANCO                        *,26.8
-102.25,22.44,ZAC,LMOZC,LUIS MOYA,31.2
-103.38,22.84,ZAC,LOBZC,LOBATOS,52.5
-101.99,22.26,ZAC,LORZC,LORETO,31
-103.21,23.18,ZAC,LREZC,LEOBARDO REYNOSO,14.8
-103.44,24.29,ZAC,MGAZC,MIGUEL AUZA,30
-103.36,21.21,ZAC,MORZC,MEZQUITAL DEL ORO,93.3
-103.56,22.31,ZAC,MRSZC,MONTE ESCOBEDO,60.6
-102.85,21.36,ZAC,NCTZC,NOCHISTLAN,45.7
-102.27,22.58,ZAC,OCAZC,OJO CALIENTE,21.7
-102.8,22.35,ZAC,PALZC,PALOMAS,17.5
-101.4,22.12,ZAC,PINZC,PINO SUAREZ,102.1
-102.9,21.72,ZAC,PMOZC,PRESA MORALE—OS,35.5
-103.03,23.82,ZAC,RGRZC,RIO GRANDE,32.7
-102.88,24.32,ZAC,SFOZC,SAN FRANCISCO,11.9
-103.51,24.29,ZAC,SGOZC,SANTIAGO,15.1
-103.5,22.33,ZAC,STEZC,SANTA TERESA,54.3
-103.11,22.93,ZAC,STRZC,SANTA ROSA,32.8
-102.87,22.1,ZAC,TAYZC,TAYAHUA,43.7
-103.88,23.47,ZAC,TCHZC,CHALCHIHUTES,23.1
-103.46,21.47,ZAC,TGOZC,TEUL DE GONZALEZ  ORTEGA,65
-102.79,21.56,ZAC,TLAZC,TLALCHICHILA,24.4
-103.31,21.77,ZAC,TLLZC,TLATENANGO,39.3
-102.34,23.29,ZAC,VCOZC,VILLA DE COSS,35.1
-101.92,22.52,ZAC,VGOZC,VILLA GONZALEZ ORTEGA,60.1
-101.72,22.35,ZAC,VHGZC,VILLA HIDALGO,44.7
-103.34,21.6,ZAC,VILZC,VILLITA,20.1
-102.51,22.75,ZAC,ZA2ZC,"ZACATECAS, ZAC. AUTOMATICA",2
-102.58,22.76,ZAC,ZACZC,ZACATECAS,20.3
